公司名称,lon,lat
北京文通科技有限公司,116.333948,39.986972
中金金融认证中心有限公司,116.55889,39.773829
赛仕软件研究开发（北京）有限公司,116.484871,40.006378
北京战策互动科技有限公司,116.366045,39.984024
上海飞观信息科技有限公司,116.387947,40.000423
北京美洽网络科技有限公司,116.315078,40.065711
北京中祥辉科技有限公司,116.317541,39.983431
旷视科技face++,116.325278,39.984211
北京知呱呱知识产权代理有限公司,116.271327,39.95431
北京快人科技有限公司,116.502802,39.963298
搜狗公司,116.332163,39.993605
北京智分科技有限公司,116.351631,39.977163
博易智软(北京)技术股份有限公司,116.354778,39.951003
超对称(北京)科技有限公司,116.481255,39.996758
网帅科技(北京)有限公司,116.377607,39.993582
店商互联(北京)科技发展有限公司,116.320146,39.975723
北京博派通达科技有限公司,116.416184,39.978202
北京硬球科技有限公司,116.30719,40.036184
拓天伟业(北京)资产管理集团有限公司,116.386368,39.849586
极客学院,116.309006,40.036858
中软国际有限公司,116.473767,40.013778
慕华(北京)网络技术有限公司,116.329653,39.995208
小付钱包技术(北京)有限公司,116.452746,39.913764
北京商高科技有限公司,116.293947,39.823994
北京多联元信息技术有限公司,116.449085,39.958545
北京盈海益讯科技发展有限公司,116.417061,40.032246
金电联行（北京）信息技术有限公司,116.454833,39.920022
北京艾唯博瑞科技有限公司,116.432851,39.936192
北京造数科技有限公司,116.50171,39.928826
北京尚客传媒科技有限公司,116.296601,39.967653
在线途游(北京)科技有限公司,116.417227,40.032034
北京红枣科技有限公司,116.474353,40.019675
玫瑰视界(北京)网络科技有限公司,116.480788,39.996806
北京首都在线科技股份有限公司,116.26875,39.95729
北京专脑信息技术有限公司,116.516858,39.92375
北京盖娅互娱网络科技股份有限公司,116.48679,40.001083
北京天广汇通科技有限公司,116.294437,39.939531
北京百悟科技有限公司,116.549644,40.088041
北京新界教育科技有限公司,116.22472,40.073618
北京中睿天下信息技术有限公司,116.311121,40.02735
北京迈基诺基因科技股份有限公司,116.54545,40.096704
北京裕天合生物材料科技有限公司,116.281462,39.827099
北京链上科技有限责任公司,116.309031,40.036569
北京卓越讯通科技有限公司,116.474098,40.011884
海南大云科技有限公司,116.509544,39.895149
北京号外科技有限公司,116.334024,39.984599
京工博创(北京)科技有限公司,116.308901,39.980692
北京点石经纬科技有限公司,116.313061,39.979386
中创三优(北京)科技有限公司,116.324917,39.93366
北京弘道智慧中医技术有限公司,116.307591,39.983763
医源国际医院管理有限公司,116.373637,39.868499
思沃创智信息技术(北京)有限公司,116.319802,39.98294
北京阿尔山金融科技有限公司,116.201617,39.90801
京东集团,116.387947,40.000423
北京一览群智数据科技有限责任公司,116.306823,39.963176
云学科技(北京)有限公司,116.514763,39.905898
用友广信网络科技有限公司,116.241859,40.071472
联想集团有限公司,116.273117,40.0463
北京阿拉丁未来科技有限责任公司,116.476849,39.980252
中国电力传媒集团有限公司,116.291739,39.822317
北京华喜创科科技有限公司,116.515842,39.937042
天创信用服务有限公司,116.463113,39.889894
北京金源动力信息化测评技术有限公司,116.424471,39.923844
北京格灵深瞳信息技术有限公司,116.377231,40.032256
北京宏嘉文化发展有限公司,116.430803,39.923853
北京创金启富投资管理有限公司,116.372843,39.878089
北京华信傲天网络技术有限公司,116.289363,40.04323
同辉佳视(北京)信息技术股份有限公司,116.334225,40.025566
Gameloft,116.311792,39.979564
北京奥金智策传媒科技有限公司,116.450497,39.908454
蓝信移动(北京)科技有限公司,116.490395,39.982772
贵阳高新联合智造运营管理有限公司,106.64846,26.616056
瑞林嘉驰(北京)资产管理有限责任公司,116.362274,39.896977
北京阳光伟烨网络技术有限公司,116.439886,39.922816
中国科学院空间应用工程与技术中心,116.281542,40.072306
盛安保险技术股份有限公司,116.349806,39.938675
福人德国际(北京)红珊瑚珠宝有限公司,116.47452,39.913401
北京博创联动科技有限公司,116.33614,39.976108
北京柯斯元科技有限公司,116.55703,39.733654
北京网录科技有限公司,116.323565,39.964621
北京湛腾世纪科技有限公司,116.446019,39.970221
北京春天影视科技有限公司,116.333058,39.979129
北京游行天下科技有限公司,116.480667,39.996403
深圳市恒扬数据股份有限公司,116.337951,39.979727
触景无限科技(北京)有限公司,116.312406,40.038281
硅谷汇(北京)软件技术有限公司,116.314245,39.990999
北大方正集团,116.316419,39.991399
唯品会(中国)有限公司,116.498144,39.913664
富贵鸟矿业,116.432785,39.934753
湖南上容信息技术有限公司,113.00167,28.23036
北京踏歌智行科技有限公司,116.063338,40.182428
新余高新区金泰亚盛咨询有限公司,116.297176,39.825233
北京华云网际科技有限公司,116.376559,40.032729
北京启明星辰信息安全技术有限公司,116.288174,40.048932
首约科技(北京)有限公司,116.432846,39.919884
北京精真估信息技术有限公司,116.306485,39.979566
上融网络科技(北京)有限公司,116.297176,39.825233
北京国电通网络技术有限公司,116.287287,39.831575
北京泽塔云科技股份有限公司,116.371079,39.968593
阿拉丁控股集团有限公司,116.481606,39.9122
鹏博士电信传媒集团股份有限公司北京科技分公司,116.421798,39.950554
中国软件与技术服务股份有限公司,116.388865,39.971066
冠诚(北京)信息服务有限公司,116.462472,39.894897
中国搜索信息科技股份有限公司,116.390041,39.870415
北京北大英华科技有限公司,116.31639,39.977679
国美在线电子商务有限公司,116.466716,39.958957
亚信科技(中国)有限公司,116.280826,40.044263
网智天元科技集团股份有限公司,116.352325,39.93095
北京佳禾永利投资管理有限公司,116.459244,39.949945
上海龙旗科技股份有限公司,116.298056,39.959912
长安通信科技有限责任公司,116.387216,39.974421
北京联龙博通电子商务技术有限公司,116.375459,39.896383
河南中原消费金融股份有限公司,113.73489,34.774281
北京旋极集团,116.236866,40.074324
北京渔阳信通信息技术有限公司,116.242963,40.050409
北京搜房互联网信息服务有限公司,116.300121,39.81334
北京天宇正清科技有限公司,116.329705,39.939364
北京大米科技有限公司,116.396058,39.944071
恒泰艾普(北京)云技术有限公司,116.236405,40.075494
天津市滨海新区军民融合创新研究院,117.621642,39.063821
嘉实基金管理有限公司,116.434059,39.912924
玖富金科控股集团有限责任公司,116.480744,39.995981
中电科技(北京)有限公司,116.374262,39.988638
北京图为先科技有限公司,116.245368,40.072979
北京一点网聚信息技术有限公司,116.388865,39.971066
北京神州泰岳软件股份有限公司,116.417617,40.031837
北京世纪超星信息技术发展有限责任公司,116.30759,40.046882
北京鼎泰智源科技有限公司,116.303276,40.035542
北京青软实训教育科技有限公司,116.505862,39.79326
中金数据系统有限公司,116.501573,39.774449
百度外卖,116.308659,40.039285
北京云币科技有限公司,116.298056,39.959912
北京知识印象科技有限公司,116.480482,39.996201
玩咖欢聚文化传媒(北京)有限公司,116.409828,40.005527
南京君合创胜数据科技有限责任公司,116.36913,39.979547
深圳市前海洪涛教育科技有限公司北京分公司,116.317561,39.983818
山东文辉软件服务外包有限公司,116.298056,39.959912
信永中和(北京)国际投资管理有限公司,116.435382,39.931209
上海甦翔投资咨询有限公司 - 研发中心,116.454602,39.914034
同方鼎欣科技股份有限公司,116.308201,40.045503
启迪桑德环境资源股份有限公司,116.566917,39.740736
北京网库信息技术股份有限公司,116.410349,39.970977
新浪网房产频道,116.446922,39.893093
蓝色光标传播集团,116.494757,39.99018
北京世纪互联宽带数据中心有限公司,116.498984,39.978446
广联达科技股份有限公司,116.287991,40.050926
中科软科技股份有限公司,116.365868,39.912289
上海仁教信息技术有限公司,121.532531,31.224871
北京中体骏彩信息技术有限公司,116.460132,39.873932
钱包金服(北京)科技有限公司,116.495586,39.96134
北京信朴量思投资管理有限公司,116.335696,39.998495
梦想城堡(天津)电子商务有限公司北京分公司,116.49902,39.990801
北京中油瑞飞信息技术有限责任公司,116.239888,40.167272
中国中信集团有限公司,116.454034,39.94749
马上消费金融股份有限公司,116.488667,40.002852
九次方大数据信息集团有限公司,116.339191,39.998363
高晟财富控股集团有限公司,116.457231,39.919828
新奥集团股份有限公司,116.551191,39.800641
今日头条,116.328915,39.97201
顺丰科技有限公司,116.298056,39.959912
海尔集团公司,116.320757,39.976709
金风科技股份有限公司,116.506647,39.795337
中金支付有限公司,116.385463,39.865104
上海瀚纳仕人才管理咨询有限公司,116.42792,39.902896
沪江教育科技(上海)股份有限公司,116.333649,39.993897
金瓜子科技发展(北京)有限公司,116.29932,40.041967
北京简单科技有限公司,116.301698,40.054403
北京振中电子技术有限公司,116.347334,40.040911
深圳前海川谷信息技术有限公司,116.454216,39.91575
北京欣如信科技有限公司,116.370139,40.037308
北京银河长兴影视文化传播股份有限公司,116.186673,39.934742
武汉佰钧成技术有限责任公司,116.479566,39.923185
搜狐媒体,116.325403,39.983335
北京融世纪信息技术有限公司,116.313061,39.979386
北京科锐国际人力资源股份有限公司,116.458919,39.93279
达内时代科技集团有限公司,116.464678,39.877132
北京千锋互联科技有限公司,116.370277,40.037273
中公教育,116.351227,40.01086
博彦科技股份有限公司,116.28305,40.048667
京东金融,116.562968,39.786653
中企动力科技股份有限公司,116.499977,39.782262
北京沃赢科技股份有限公司,116.323415,39.963534
北京奇虎科技有限公司,116.371817,39.95402
中国电子科技集团公司第十五研究所,116.374262,39.988638
新博卓畅技术（北京）有限公司,116.513733,39.791939
纬创软件(北京)有限公司,116.274735,40.099197
北京国双科技有限公司,116.332409,39.976003
厦门美图网科技有限公司,113.95232,22.540945
北京好巧国际旅行社有限公司,116.406813,39.973653
北京友缘在线网络科技有限责任公司,116.42939,40.005696
慧科教育科技集团有限公司,116.35125,39.977761
山东北斗华宸导航技术股份有限公司,116.303002,40.044199
中科富创(北京)科技有限公司,116.490629,39.985199
北京风行在线技术有限公司,116.349111,39.976097
银湖网络科技有限公司,116.408574,39.913402
北京天融信科技有限公司,116.301262,40.055171
北京新恒基房地产集团有限公司,116.466361,39.959148
北京奇安信科技有限公司,116.491348,39.983006
北京思易特科技有限责任公司,116.304139,39.961031
北京四维图新科技股份有限公司,116.245368,40.072979
包商银行股份有限公司,116.443108,39.92147
美因健康科技(北京)有限公司,116.366254,39.982776
亿利资源集团有限公司,116.470122,39.914201
江苏传智播客教育科技股份有限公司北京分公司,116.629396,40.162822
苏宁云商集团股份有限公司,116.42792,39.902896
云唯+,116.376368,40.11413
北京卡车之家信息技术股份有限公司,116.540482,39.912064
北京寺库商贸有限公司,116.432749,39.920177
凯泰铭科技(北京)有限公司,116.509102,39.902725
泰康在线财产保险股份有限公司,116.278101,40.090137
上海蔚来汽车有限公司,116.42792,39.902896
北京品友互动信息技术股份公司,116.462472,39.894897
启迪控股股份有限公司,116.330702,39.994511
北京墨迹风云科技股份有限公司,116.490344,39.974291
成都数联铭品科技有限公司,116.310336,39.960229
烟台欣和企业食品有限公司,116.455207,39.919957
因诺(上海)资产管理有限公司,116.375409,39.897635
北京物云智能科技有限公司,116.466485,39.995197
秦皇岛康研网络科技有限公司,119.61161,39.936375
游族网络,116.41933,39.952569
北京顶测科技有限公司,116.478783,39.989857
北京腾趣互娱网络科技有限公司,116.222982,39.906611
北京辰安科技股份有限公司,116.338762,39.999491
北京百分点信息科技有限公司,116.387947,40.000423
北京东方国信科技股份有限公司,116.473785,40.021385
天治北部资产管理有限公司,116.359141,39.912523
北京易掌云峰科技有限公司,116.3231,39.966197
北京奥索斯科技有限公司,116.488122,39.878545
北京玩蟹科技有限公司,116.405998,39.977729
上海睿璞企业管理咨询有限公司,116.421919,39.907471
冠通期货股份有限公司,116.457231,39.919828
北京无双科技有限公司,116.474762,39.992488
普华基础软件股份有限公司,116.311121,40.02735
亦非云互联网技术(上海)有限公司,116.496718,39.783708
北京易华录信息技术股份有限公司,116.196249,39.925451
猎鹰全球国际电子商务有限公司,116.425754,40.033535
杭州迪普科技股份有限公司北京技术开发中心,116.243259,40.072316
米袋子信息技术(北京)有限公司,116.514274,39.905497
北京双杰电气股份有限公司,116.686284,40.345301
北京久其软件股份有限公司,116.499554,39.779932
北京亿信华辰软件有限责任公司,116.357652,40.041947
深圳善为影业股份有限公司,116.443108,39.92147
北京羽扇智信息科技有限公司,116.30533,39.982357
先锋支付有限公司,116.465871,39.958237
北京车和家信息技术有限责任公司,116.503959,40.006419
北京壹人壹本信息科技有限公司,116.339309,39.99972
e袋洗,116.502358,39.974805
泰康保险集团股份有限公司,116.274759,40.099201
汉柏科技有限公司,116.486676,40.009092
北京量子金服网络科技有限公司,116.462476,39.928153
北京荣之联科技股份有限公司,116.505929,39.986414
吉林亿联银行股份有限公司,116.245166,39.903149
新奥特(北京)视频技术有限公司,116.272054,39.934425
武汉文网亿联科技有限公司,116.494217,39.972739
北京安宁创新网络科技股份有限公司,116.286441,39.908148
视点映画(北京)数字技术有限公司,116.555021,39.885553
北京聚源融合通讯科技有限公司,116.42792,39.902896
深圳市华云中盛科技有限公司,116.479595,39.995787
北京中环信科科技股份有限公司,116.429233,39.936189
宇信数据科技有限公司,116.460003,39.952506
心常态(北京)文化有限公司,116.508162,39.932969
北京比特世纪科技有限公司,116.314738,40.043919
上海连舟科技有限公司,116.452767,39.932472
北京水象科技有限公司,116.295594,39.824289
滴滴出行,116.289072,40.043515
中金信科(北京)科技股份有限公司,116.29831,40.080845
北京推想科技有限公司,116.491273,39.913607
北京冰狮科技有限公司,116.457283,39.932171
北京鑫广进燃气设备研究所,116.292329,39.946996
国美金控投资有限公司,116.466441,39.959155
北京六趣网络科技有限公司,116.303314,40.054349
北京优粮生活科技有限公司,116.458079,39.915005
北京海云捷迅科技有限公司,116.32032,39.974827
北京教书匠教育咨询有限公司,116.415116,40.057231
云量科技(北京)有限责任公司,116.481723,39.996615
创维集团有限公司,116.317564,39.975996
易鑫集团,116.327893,39.936853
陪我欢乐(北京)科技有限公司,116.31321,39.979446
和创(北京)科技股份有限公司,116.371894,39.958931
北京祖睿科技有限公司,116.339005,39.991505
百度在线网络技术(北京)有限公司,116.273399,40.043429
京东商城,116.42792,39.902896
北京华巨东方文化传媒有限公司,116.551231,39.898147
北京三快在线科技有限公司,116.488645,40.007069
普信恒业科技发展(北京)有限公司,116.474464,39.90913
鳌背(北京)科技有限公司,116.568848,39.782589
绫致时装（天津）有限公司,116.451157,39.916534
北大医疗信息技术有限公司,116.31315,39.984622
北京捷科智诚科技有限公司,116.304773,40.051836
小叶子(北京)科技有限公司,116.471375,40.020184
北京未来云科技有限公司,116.271935,40.047086
北京财经专修学院,116.321662,39.68651
百融金融信息服务股份有限公司,116.326869,39.983466
北京八维研修学院,116.300301,40.041244
北京智华信科技股份有限公司,116.475891,39.985446
易第优（北京）教育咨询股份有限公司,116.337705,40.102646
北京中创信测科技股份有限公司,116.325098,39.953463
东信北邮信息技术有限公司,116.349939,39.976934
北京汇商融通信息技术有限公司,116.36025,39.7551
世纪爱心国际投资集团有限公司,116.394193,39.976953
中航航空电子有限公司,116.332067,39.970031
北京睿思博考教育科技有限公司,116.179314,39.914869
Symbio 北京研发中心,116.46343,39.949958
北京南天软件有限公司,116.308211,40.042232
北京知趣科技有限公司,116.492321,39.978782
北京蓝汛通信技术有限责任公司,116.500139,39.991999
北京雷石天地电子技术有限公司,116.417032,40.033341
航天星图科技(北京)有限公司,116.636945,40.055643
天津火星文化有限公司北京分公司,116.539453,39.912633
北京智慧星光信息技术有限公司,116.312495,39.984752
环球合一网络技术(北京)股份有限公司,116.311792,39.979564
北京汇冠新技术股份有限公司,116.281049,40.042501
中国国际金融股份有限公司,116.458676,39.912147
北京兆芯电子科技有限公司,116.329455,39.993314
中国交通通信信息中心,116.398819,39.96565
曙光信息产业（北京）有限公司,116.290833,40.046654
北京人民在线网络有限公司,116.470464,39.919707
民航数据通信有限公司,116.348728,39.986115
中国科学院电子学研究所信息技术创新工程中心,116.326459,39.989055
北京极智嘉科技有限公司,116.465601,40.021608
北京地球港卓越商业管理有限公司,116.462392,39.92724
知行致远(北京)教育科技有限公司,116.417075,40.036858
北京知行易航智能科技有限公司,116.500139,39.991999
北京方正世纪信息系统有限公司,116.416357,39.928353
北京航天宏图信息技术股份有限公司,116.234305,39.953625
神州数码医疗科技股份有限公司,116.306485,39.979566
网宿科技,116.353015,39.978694
金融界网站,116.375126,39.89419
北京品冠天成科技有限公司,116.48105,39.996794
明亚保险经纪股份有限公司,116.439886,39.922816
新智超脑科技有限公司,116.484871,40.006378
北京优音通信有限公司,116.475862,39.911005
国网电力科学研究院北京科东电力控制系统有限责任公司,116.375151,39.882043
瑞庭网络技术(上海)有限公司北京分公司,116.354071,40.009055
智慧互通科技有限公司,116.316325,39.977668
纳沃克斯(北京)国际咨询有限公司 Networkers International,116.443108,39.92147
耀盛投资管理集团有限公司,116.471209,39.90559
北京金控数据技术股份有限公司,116.309192,39.933585
北京当当科文电子商务有限公司,116.440346,39.96037
北京翔云在线数据技术有限公司,116.276244,39.933391
中国电信股份有限公司北京分公司,116.494708,39.893667
北京云知声信息技术有限公司,116.446019,39.970221
北京升哲科技有限公司,116.480788,39.996806
北京捷越联合信息咨询有限公司,116.433382,39.921372
哆啦宝(北京)科技有限公司,116.460435,39.882853
北京时代华擎信息技术有限公司,116.484086,39.924877
洛可可设计集团,116.457329,39.977855
蜜芽宝贝(北京)网络科技有限公司,116.446019,39.970221
在路上旅业,116.433767,39.920021
北京盈禾优仕科技有限责任公司,116.423403,39.990412
久亿恒远(北京)科技有限公司,116.470806,39.910111
安诺优达基因科技（北京）有限公司,116.541133,39.800293
北京贝瑞和康生物技术有限公司,116.268738,40.10133
四达时代集团,116.572151,39.78233
海航云商投资有限公司,116.420615,39.951528
中国国际期货股份有限公司,116.456956,39.912962
北京城建智控科技有限公司,116.330253,39.873089
杭州数美科技有限公司,116.466485,39.995197
北京百卓网络技术有限公司,116.178477,40.058088
彪洋科技(北京)有限公司,116.436086,39.930589
北京紫马财行投资管理有限公司,116.473808,39.909246
西藏方程汽车租赁有限责任公司北京咨询分公司,116.456482,39.910622
北京爱钱帮财富科技有限公司,116.456482,39.910622
浙江同牛网络科技有限公司,116.433762,39.920158
北京市外商投资企业服务中心,116.436077,39.931228
北京思源时代科技有限公司,116.281613,39.913626
江山永泰投资控股有限公司,116.2847,39.947528
乐惠(北京)科技有限公司,116.35268,40.014896
北京数字联盟网络科技有限公司,116.349111,39.976097
图谱天下(北京)科技有限公司,116.42027,39.947831
北京容联易通信息技术有限公司,116.467542,39.994632
中科宇图科技股份有限公司,116.377757,39.993287
浪潮集团有限公司,116.30598,40.047127
新东方教育（科技）集团,116.312056,39.980789
上海微创软件股份有限公司,116.42792,39.902896
华为技术有限公司,114.077847,22.619476
大连信雅达软件有限公司北京办事处,116.390979,39.880309
北京捷通华声科技股份有限公司,116.296227,40.05158
北京能通天下网络技术有限公司,116.372192,40.036478
多点生活(中国)网络科技有限公司,116.319794,39.976559
北京八维教育集团,116.335178,39.981591
北京钱方银通科技有限公司,116.480665,39.996404
北京安天网络安全技术有限公司,116.258589,39.973992
北京思迪康泰科技有限公司,116.334441,40.030202
北京布科思科技有限公司,116.346574,40.033108
找伙伴(北京)信息技术股份公司,116.05603,36.447994
北京焱融科技有限公司,116.338653,39.990434
北京易联戴维企业管理服务有限责任公司,116.443108,39.92147
精硕科技(北京)股份有限公司,116.357652,40.041947
乐飞天下信息技术(北京)有限公司,116.454351,39.905634
优保联(北京)科技有限公司,116.361446,40.074331
北京傲盾软件有限责任公司,116.312114,40.039429
果壳网,116.470749,39.906002
河北戴纳米克科技有限公司,114.442045,38.018697
北京明特量化信息技术有限公司,116.301991,39.960584
北京复华卓越商业管理有限公司,116.462392,39.92724
华兴创信(北京)科技有限公司,116.656434,39.909946
青松智慧(北京)科技有限公司,116.314574,39.984604
律品汇科技（北京）有限公司,116.433762,39.920158
劳动光荣科技(北京)有限公司,116.508247,39.92392
北京布雷恩科技有限公司,116.477058,39.901279
北京中浦天投科技有限公司,116.432001,40.046486
北京荣新智客教育科技有限公司,116.345817,39.960265
北京创客在线教育科技有限公司,116.339669,40.052166
北京云图智联教育科技有限责任公司,116.250627,40.117618
上海蔓盈信息科技有限公司北京朝阳分公司,116.447714,39.971234
混沌时代(北京)教育科技有限公司,116.333402,39.970339
北京太一云科技有限公司,116.465601,40.021608
北京多牛互动传媒股份有限公司,116.377106,40.035384
厦门中控智慧信息技术有限公司,116.303367,39.91249
北京江民新科技术有限公司,116.289292,39.960138
北京山茶花科技有限公司,116.481933,39.911775
嘉才(北京)企业管理咨询有限公司,116.309897,39.983621
北京科浪扑科技发展有限公司,116.315347,39.983108
北京锐驰信安技术有限公司,116.298056,39.959912
湖南网数科技有限公司,116.326836,40.00366
青岛碎片时代信息技术有限公司,116.305989,40.043097
爱贝睿(北京)科技有限公司,116.333948,39.986972
北京创智信科科技股份有限公司,116.307884,40.036828
北京朗势科技有限公司,116.338762,39.999491
北京奥德塔数据科技有限公司,116.371378,40.041928
北京雇德信息科技有限公司,116.42792,39.902896
北京凡尔康管理咨询有限公司,116.388865,39.971066
北京火币天下网络技术有限公司,116.315987,40.054106
北京朗阁信息技术有限公司,116.415047,40.069664
君康人寿保险股份有限公司,116.456604,39.910778
北京嘉楠捷思信息技术有限公司,116.287865,40.046673
链家网(北京)科技有限公司,116.305514,40.040202
北京梦疆咨询有限公司,116.336998,39.977182
北京诚益通控制工程科技股份有限公司,116.308677,39.678075
北京奇树有鱼文化传媒有限公司,116.538663,39.917293
东方银谷(北京)投资管理有限公司,116.451614,39.919659
大公国际信用评级集团有限公司,116.466361,39.959148
北京阿凡题科技有限公司,116.338914,39.99232
深圳索信达数据技术股份有限公司,116.451958,39.913887
上海清鹤科技股份有限公司,116.313686,40.067303
南京国睿信维软件有限公司,116.282707,39.934846
北京京东世纪贸易有限公司,116.561783,39.787941
北京迪安捷生物科技有限公司,116.381355,40.005084
北京博睿宏远数据科技股份有限公司,116.436764,39.93508
上海享学网络科技有限公司北京分公司,116.393684,40.000416
北京旌准医疗科技有限公司,116.564575,39.779368
森纵艾德（北京）教育科技股份有限公司,116.41842,39.98792
北京国通合众信息技术有限公司,116.348728,39.986115
知豆电动汽车有限公司,116.253768,39.928493
北京畅聊天下科技股份有限公司,116.308201,40.045503
北京大家玩科技有限公司,116.453008,39.931624
博奥生物集团有限公司,116.276218,40.093261
成都尼毕鲁科技股份有限公司,116.326182,39.984072
北京果加智能科技有限公司,116.330801,39.993541
北京国信创新科技股份有限公司,116.326534,39.932965
和信丰泽投资担保(北京)有限公司,116.470989,39.907587
北京朔和科技有限公司,116.307147,39.973069
北京斗米优聘科技发展有限公司,116.300301,40.041244
新石器龙码(北京)科技有限公司,116.470627,39.899849
北京掌众科技有限公司,116.377169,40.032874
可可家里(北京)信息技术有限公司,116.191704,39.939098
深圳艾诺管理咨询有限公司,116.325295,39.947752
湖南艾瓦特网络科技有限公司,116.443108,39.92147
北京新东方迅程网络科技股份有限公司,116.312776,39.980182
北京竞业达数码科技有限公司,116.166673,40.062327
深圳天源迪科信息技术股份有限公司,116.312495,39.984752
鼎复数据科技(北京)有限公司,116.387947,40.000423
北京金山云网络技术有限公司,116.310195,40.039018
北京靠谱前程网络技术有限公司,116.308543,40.037519
北京融数数据服务有限责任公司,116.493828,39.974186
北京惠每科技有限公司,116.348771,39.975845
锤子科技(北京)有限公司,116.479376,40.012245
华信永益(北京)信息技术有限公司,116.474464,39.90913
北京众合天下管理咨询有限公司,116.452954,39.906344
北京趣加科技有限公司,116.326182,39.984072
北京比特大陆科技有限公司,116.377231,40.032256
博洛尼家居装饰(北京)有限公司,116.464353,39.978038
360金融,116.490395,39.982772
北京版全家科技发展有限公司,116.333722,39.98697
北京互连众信科技有限公司,116.466553,39.934441
梦燃教育科技(北京)有限公司,116.329299,39.995312
莲和(北京)医疗科技有限公司,116.568357,39.789157
北京山石网科信息技术有限公司,116.372999,40.031019
北京侨福置业有限公司,116.448242,39.919985
北京友友天宇系统技术有限公司,116.468039,39.892841
北京智明星通科技股份有限公司,116.351631,39.977163
北京万里红科技股份有限公司,116.335316,39.953199
武汉绿色网络信息服务有限责任公司北京分公司,116.323565,39.964621
北京新媒传信科技有限公司,116.287865,40.046673
东方兴业网络教育服务有限责任公司,116.364362,40.001776
北京畅聚网络科技有限公司,116.466749,39.900356
北京华美汉盛信息技术有限公司,116.306823,39.963176
北京倍飞视国际视觉艺术交流有限公司,116.45605,39.933083
北京中科云智慧环保科技有限公司,116.379997,39.976826
中智智人信息技术有限公司,116.455017,39.913955
明医众禾科技(北京)有限责任公司,116.425805,40.033412
北京坚果金服科技有限公司,116.493221,39.973419
尚正(北京)信息技术有限公司,116.291861,39.820301
中铁信息工程集团有限公司,116.298211,39.947085
北京恒赢智航科技有限公司,116.469688,39.90657
北京中达金桥技术股份有限公司,116.410378,39.969385
苏州美生元信息科技有限公司,116.314146,39.982818
北京朴素磐石投资管理有限公司,116.37025,40.012978
北京迅达云成科技有限公司,116.489981,39.974634
北京北亚宸星科技有限公司,116.235601,40.076317
北京三赢伟业科技有限公司,116.470237,39.907114
北京师范大学中国基础教育质量监测协同创新中心,116.365798,39.961576
金陵投资控股有限公司,116.432338,39.93484
北京汇才同飞软件技术研究院,116.309031,40.036569
沈阳民航东北凯亚有限公司大连分公司,116.390046,39.999976
北京热点映像文化传媒有限公司,116.544607,39.92437
北京征晨文化传播有限公司,116.426147,40.032829
北京小米电子产品有限公司,116.333876,40.027624
北京数智源科技股份有限公司,116.417299,39.969642
北京中合汇通投资管理有限公司,116.298056,39.959912
北京麦达数字技术服务有限公司,116.48867,40.002853
北京艾亿新融资本管理有限公司,116.456493,39.91404
天下拉手通讯技术有限公司,116.473565,39.903578
中博睿智(北京)科技发展有限公司,116.306295,40.053034
北京索维智能科技有限公司,116.192966,39.937249
北京破晓互动科技有限责任公司,116.323565,39.964621
云和恩墨(北京)信息技术有限公司,116.452359,39.913671
北京原子钟信息科技有限公司,116.326406,39.984722
伯乐易才(北京)管理咨询有限公司,116.492846,39.915138
北京易创盈互联网科技有限公司,116.453775,39.905453
北京车势科技有限公司,116.4534,39.918625
华云信息技术工程有限公司,116.323553,39.96077
汇中泰德投资有限公司,116.490052,39.976587
北京闪银信息技术有限公司,116.466553,39.934441
北京智量酷教育科技有限公司,116.292868,40.047683
北京中企人力资源咨询有限公司,116.406952,39.968847
北京立时世通科技有限公司,116.348151,39.88204
北京柯锐特信息技术有限公司,116.235131,40.199727
北京君云时代科技有限公司,116.476196,39.905769
北京中视广信科技有限公司,116.314358,39.920735
北京伯众联合管理咨询有限公司,116.357238,40.04388
北京捷众汽车租赁有限公司,116.433205,39.920807
云像(上海)数字技术有限公司北京分公司,116.493221,39.973419
北京亿心宜行汽车技术开发服务有限公司,116.469607,40.012996
长城汽车股份有限公司,116.284225,39.823896
北京快方科技有限公司,116.306465,39.977322
北京北信源软件股份有限公司,116.325118,39.948575
南京唯实科技有限公司,116.42792,39.902896
北京易教空间教育科技股份有限公司,116.386993,39.969106
北京和创未来网络科技有限公司,116.386646,39.991129
北京华清远见科技信息有限公司,116.42792,39.902896
北京万向联合控股集团有限公司,116.460289,39.871017
北京秒针信息咨询有限公司,116.417482,40.036662
北京小易到家电子商务有限公司,116.300591,40.024343
北京智芯微电子科技有限公司,116.356405,40.048955
北京粉笔未来科技有限公司,116.474762,39.992488
北京航天泰坦科技股份有限公司,116.29295,39.823007
北京市西城区巨人文化艺术培训学校,116.314779,40.005101
北京青蚨资产管理有限公司,116.453121,39.932944
北京永航科技有限公司,116.41933,39.952569
烽泰科技（北京）有限公司,116.307884,40.036828
天津市国瑞数码安全系统股份有限公司北京办事处,116.431366,39.979916
北京华友联创科技发展有限公司,116.341843,39.964002
翰竺科技(北京)有限公司,116.383805,40.008247
北京登云美业网络科技有限公司,116.513779,39.791927
北京视通财富信息技术有限公司,116.459812,39.955578
中科金审(北京)科技有限公司,116.335098,39.953966
野狗科技(北京)有限公司,116.465601,40.021608
信和汇诚信用管理(北京)有限公司,116.297176,39.825233
新浪网,116.285175,40.044846
宝马（中国）汽车贸易有限公司 ,116.42792,39.902896
北京汉迪移动互联网科技股份有限公司,116.339102,39.9919
博淼生物科技(北京)有限公司,116.326972,39.88511
北京中科同向信息技术有限公司,116.347917,39.975219
好贷天下信息技术(北京)有限公司,116.415877,39.937789
广州碧软信息科技有限公司,116.298056,39.959912
达疆网络科技(上海)有限公司,116.510506,39.795593
北京得瑞领新科技有限公司,116.348154,40.080059
北京亿美软通科技有限公司,116.514649,39.90451
北京慧据科技产业发展有限公司,116.467542,39.994632
四川华澳新桥时代商务服务有限公司,116.492157,39.996128
蜂网供应链管理(上海)有限公司,116.313686,40.067303
世纪恒通科技股份有限公司,116.373194,39.909562
金联钱包(北京)科技有限公司,116.436154,39.855123
北京奇子投资管理有限公司,116.432333,39.920973
中标软件有限公司,116.333948,39.986972
中国经济信息社有限公司,116.373372,39.898246
北京默闻科技有限公司,116.312776,39.980182
多盟智胜网络技术(北京)有限公司,116.494757,39.99018
北京合享智慧科技有限公司,116.303104,40.044257
央视市场研究股份有限公司,116.379397,39.964479
华青融天(北京)技术股份有限公司,116.352047,39.985718
艺龙网信息技术(北京)有限公司,116.494662,39.976693
立信会计师事务所(特殊普通合伙)北京分所,116.275935,39.916836
暴风影音,116.352812,39.978206
北京必浩得知识产权代理有限公司,116.292528,39.946592
北京佳讯飞鸿电气股份有限公司,116.165901,40.06222
北京中交兴路车联网科技有限公司,116.294205,40.052326
中国电子系统技术有限公司,116.253604,39.891496
北京百仁汇智能科技有限公司,116.347917,39.975219
中网数据(北京)股份有限公司,116.2379,40.075919
厦门市美亚柏科信息股份有限公司,116.421871,39.950592
北京联讯欣烨科技有限公司,116.358728,39.929712
北京停简单信息技术有限公司,116.334076,39.988097
北京中大联合汽车租赁有限公司,116.460945,39.960743
凤凰金融,116.473256,40.020246
北京邦利德网络科技有限公司,116.3428,39.965623
猎聘网,116.498574,39.923424
北京知行锐景科技有限公司,116.314371,39.983865
融易推网络技术(北京)有限公司,116.41705,40.031
北京易教阳光教育科技有限公司,116.387113,39.968771
北京美黛网络科技有限公司,116.341389,39.888922
北京华宇信息技术有限公司,116.330702,39.994511
北京开卷信息技术有限公司,116.331208,39.926632
北京中欣银宝通支付服务有限公司,116.404619,39.892085
北京蓝信汇智科技有限公司,116.29546,39.821274
深圳回收宝科技有限公司,116.476798,39.997344
北京微网通联股份有限公司,116.282912,40.04717
易宝支付有限公司,116.457231,39.919828
北京银信长远科技股份有限公司,116.432443,39.931465
北京中科汇联科技股份有限公司,116.298353,40.04439
亚联创新科技有限责任公司,116.512863,39.791831
北京航新航宇航空科技有限公司,116.500161,39.975855
北京华生恒业科技有限公司,116.333796,39.98807
北京爱狄特信息科技有限公司,116.441384,39.937014
北京凯声文化传媒有限责任公司,116.492502,39.996722
云中万维(北京)科技有限公司,116.352963,39.93081
北京乐动卓越科技有限公司,116.416301,40.034928
北京惠民鲜蜂科技有限公司,116.431092,40.046788
国联资产管理有限公司,116.406813,39.973653
航天云网科技发展有限责任公司,116.276421,39.916622
天津安科运达航空服务股份有限公司,116.439886,39.922816
三一集团,116.280522,40.04792
巴里斯特(北京)科技有限公司,116.449941,39.963137
北京森艾电子技术有限公司,116.481911,39.800164
北京首金中小微企业金融服务有限公司,116.302636,40.043695
北京标融科技发展有限公司,116.2426,40.08051
中视前卫影视传媒有限公司,116.321081,39.934336
天津萌兔科技有限公司,117.67128,39.000367
北京秀友科技有限公司,116.322986,39.975749
美国菲达康有限责任公司北京代表处,116.315314,40.042865
红帽中国,116.45947,40.024982
北京计算机技术及应用研究所,116.262689,39.912756
汉唐信通(北京)咨询股份有限公司,116.453749,40.021724
上海赛连信息科技有限公司北京分公司,116.465602,40.018094
一号车市控股有限公司北京分公司,116.47017,39.985907
北京云测信息技术有限公司,116.496216,39.96098
北京灵动时空科技有限责任公司,116.443108,39.92147
祖龙娱乐,116.420616,39.951529
诺威华仕(北京)管理咨询有限公司,116.298056,39.959912
PPmoney万惠集团,113.319941,23.137734
毕威拓科技（北京）有限公司,116.326406,39.984722
新诺亚(北京)文化发展有限公司,116.314115,39.877798
北京大开科技有限公司,116.301934,40.054588
北京云房数据技术有限责任公司,116.349117,39.933692
北京青钱信息技术有限公司,116.292868,40.047683
和信电子商务有限公司,116.470993,39.907739
东华软件股份公司,115.888228,39.787865
北京现代中欧软件开发有限公司,116.353474,39.957608
北京东械科技有限公司,116.459385,39.892861
北京天拓四方科技有限公司,116.280394,39.823182
北京中建政研集团有限公司,116.253695,39.917977
北京智慧眼科技股份有限公司湖南分公司,116.285198,40.046487
广州佰聆数据股份有限公司,116.314822,39.981805
华晨宝马汽车有限公司,116.42792,39.902896
北京卡戳文化传播有限公司,116.44862,39.964122
随行付支付有限公司,116.19173,39.937184
北京中天荣泰科技发展有限公司,116.469291,40.013837
司马大大(北京)智能系统有限公司,116.31088,39.99281
智本时代(北京)科技有限公司,116.33342,39.993943
北京未来进程信息技术有限公司,116.443108,39.92147
北京学而思网络科技有限公司,116.388865,39.971066
北京光云动漫文化有限公司,116.454431,39.932608
音曼(北京)科技有限公司,116.386984,39.977276
信亦宏达网络存储技术(北京)有限公司,116.3428,39.965623
北京雅林士博建筑工程有限公司,116.188361,39.922177
北京鲸鲨软件科技有限公司,116.255464,39.97639
北京天维科技有限公司,116.469409,39.998521
尚德机构,116.469975,40.019701
北京好赞移动科技有限公司,116.459812,39.955588
北京信通泰克科技有限公司,116.454742,39.907583
北京课观教育科技有限责任公司,116.455155,39.995801
北京麒麟合盛网络技术有限公司,116.480845,39.996173
北京金山办公软件股份有限公司,116.322721,40.036747
中青博联整合营销顾问股份有限公司,116.432478,39.937882
蓝港在线(北京)科技有限公司,116.474915,40.012264
YOKA时尚网,116.453012,39.917125
中邮信息科技(北京)有限公司,116.337308,40.059094
星河互联集团有限公司,116.310195,40.039018
苏州金唯智生物科技有限公司,116.42792,39.902896
北京美福科技股份有限公司,116.303308,39.961273
北京人合创咨询有限公司,116.337362,39.977865
北京博奥晶典生物技术有限公司,116.541279,39.801544
北京华路时代信息技术有限公司,116.340942,39.957874
小船出海教育科技(北京)有限公司,116.303104,40.044257
飞鹤乳业,116.490455,39.979843
北京博奥医学检验所有限公司,116.539859,39.802126
中海微银资产管理有限公司,116.417868,39.897523
象翌微链科技发展有限公司,116.325203,39.947765
华彬投资(中国)有限公司,116.451963,39.906134
北京小度互娱科技有限公司,116.283703,40.044533
极晨智道信息技术（北京）有限公司,116.378786,39.993626
北京超图信息技术有限公司,116.507637,39.984912
清华大学微电子学研究所,116.333789,40.001384
北京雅康博生物科技有限公司,116.239182,40.073703
国网电子商务有限公司,116.357392,39.890633
北京足坛之星投资有限公司,116.475819,39.907396
华强方特(厦门)动漫有限公司,118.185507,24.683194
中国科学院软件研究所,116.335684,39.97858
北京华道资本投资有限公司,116.349074,39.976004
北京圣康汇金科技有限公司,116.337794,39.957235
Esri中国信息技术有限公司,116.384849,40.002645
北部资产经营股份有限公司,121.670449,38.927911
北京苏神科技发展有限公司,116.603649,39.924124
智惠信息咨询（北京）有限公司,116.473008,39.912105
杭州释码云信息技术有限公司,116.474011,39.951068
北京金准基因科技有限责任公司,116.36607,39.982583
海鸿达(北京)餐饮管理有限公司,116.411563,40.060709
北京四合天地科技有限公司,116.352812,39.978206
河北逗付科技有限公司北京分公司,116.400294,39.969432
Airbus China Ltd.,116.555262,40.067974
新拓尼克科技研发中心 ,117.067669,39.094272
东芝医疗系统(中国)有限公司,116.505356,39.980922
康明斯(中国)投资有限公司,116.42792,39.902896
北京博图纵横科技有限责任公司,116.321714,39.899761
卡尤迪生物科技(北京)有限公司,116.269168,40.098784
北京若森数字科技有限公司,116.345624,40.079921
恒信东方文化股份有限公司,116.292829,39.946039
北京希望组生物科技有限公司,116.273071,40.098353
北京人和创建信息技术有限公司,116.347334,40.040911
北京宝兰德软件股份有限公司,116.629464,40.341887
兰亭集势,116.502792,39.993728
开心网,116.440346,39.96037
AVATRADE,116.451483,39.918905
北京京穗蓝盾信息安全技术有限公司,116.287865,40.046673
北京新商界网络科技集团有限公司,116.307879,40.036238
北京易米云佳网络科技有限公司,116.400818,39.985157
国信优易数据有限公司,116.297176,39.825233
信广投资管理集团有限责任公司,116.473606,39.950627
北京小鸟看看科技有限公司,116.352047,39.985718
汉王科技股份有限公司,116.298088,40.047176
北京东软望海科技有限公司,116.428696,39.894322
北京福通互联科技有限公司,116.655945,40.128352
北京快鱼电子股份公司,116.366028,39.988588
北京宅急送快运股份有限公司,116.59346,40.120366
天碧科技有限公司,116.320757,39.976709
北京学神科技有限公司,116.292626,40.099014
南京恒略信息技术有限公司,116.359972,40.039972
北京热刺激光技术有限责任公司,116.500729,39.976915
坤舆天气(北京)科技有限公司,116.338611,39.992552
北京国信桥通信工程有限公司,116.362681,39.81029
北京必然如此网络技术有限公司,116.310188,39.983509
北京数王科技有限公司,116.353198,39.977341
睿初科技（深圳）有限公司,113.947453,22.534948
北京北方金证科技有限公司,116.332802,39.958294
中青健康产业发展有限公司,116.466361,39.959148
灵动科技(北京)有限公司,116.333817,39.983968
北京华诚兴业软件开发有限责任公司,116.29777,39.865171
北京赛博贝斯数据科技有限责任公司,116.294898,40.111685
北京中北信科技发展有限公司,116.22121,39.956698
乐荐信息科技（北京）有限公司,116.579755,40.169328
北京阿提拉科技有限公司,116.354425,39.922732
北京嗨课网络科技有限公司,116.313416,39.978562
拍库(北京)科技有限公司,116.441491,39.921758
北京软安科技有限公司,116.35917,39.964317
天津紫龙奇点互动娱乐有限公司北京办事处,116.516108,39.936966
河北新龙科技集团股份有限公司,114.521582,38.052996
北京蓝海讯通科技有限公司,116.359972,40.039972
北京众蓝科技有限公司,116.308543,40.037519
北京派队体育有限公司,116.530952,39.914778
北京神州云合数据科技发展有限公司,116.354858,39.924324
北京企名片科技有限公司,116.302997,40.051302
同源数智(北京)科技有限公司,116.524615,39.783984
北京步鼎方舟科技有限公司,116.296601,39.967653
北京牧辰科技有限公司,116.319802,39.98294
号外号(北京)科技有限公司,116.319802,39.98294
北京万导技术咨询有限公司,116.340606,40.006908
上海每联每信息技术有限公司大连分公司,116.443108,39.92147
阿里巴巴集团,116.42792,39.902896
航天信息股份有限公司,116.292722,39.947052
汽车之家,116.311792,39.979564
易车公司,116.327893,39.936853
欢聚时代（多玩YY）,116.351258,39.977169
北京新能源汽车股份有限公司,116.526752,39.794319
中银金融商务有限公司,116.299725,40.050495
杭州海康威视数字技术股份有限公司,116.336116,40.0708
联通支付有限公司,116.372959,39.909969
北京科诺思通咨询有限公司,116.388865,39.971066
北京理工大学智能机器人与系统高精尖创新中心,116.320469,39.961231
上海小蚁科技有限公司,116.28305,40.048667
重庆小康工业集团股份有限公司,116.282221,40.044065
北京欣奕华科技有限公司,116.561434,39.779339
北京瑞星信息技术股份有限公司,116.317186,39.98149
东易日盛家居装饰集团,116.451614,39.919659
乐普(北京)医疗器械股份有限公司,116.258492,40.204274
"ACCESS PEOPLE CO.,LIMITED",116.446264,39.944211
北京西普阳光教育科技股份有限公司,116.317561,39.983818
北京天石和合文化传播有限责任公司,116.438397,39.923652
浙江九州云信息科技有限公司,116.302923,39.950401
北京优贝在线网络科技有限公司,116.443108,39.92147
北京东润环能科技股份有限公司,116.353722,40.015752
上海赤犬投资管理有限公司,121.316057,31.20623
北京万游网络科技有限公司,116.317475,39.983443
北京因果树网络科技有限公司,116.306659,39.984532
福建广生堂药业股份有限公司,119.269629,26.108587
北京开天创世科技有限公司,116.471587,40.011925
地壳机器人科技有限公司,116.315397,39.983777
北京图森未来科技有限公司,116.452952,39.91554
北京高梓行远科技有限公司,116.302254,40.053213
中控智慧科技股份有限公司北京分公司,116.303367,39.91249
碳阻迹,116.431098,39.846343
上海格联投资管理有限公司北京分公司,116.453238,39.91869
华赢科技(北京)有限公司,116.34213,39.946725
北京中科时间科技有限公司,116.472481,39.991909
北京意泰物联软件科技有限公司,116.500701,39.975811
北京一天天教育科技有限公司,116.28421,40.145992
北京翼石科技有限公司,116.349111,39.976097
北京嘀嗒时代科技有限公司,116.443108,39.92147
成都天捷正诚科技有限公司,116.45539,39.961592
华腾创源(北京)科技发展有限公司,116.387928,40.000423
烽台科技(北京)有限公司,116.413649,40.023897
元贞佑方(北京)科技发展有限公司,116.408027,39.991761
北京中科物安科技有限公司,116.235267,39.954139
恒安嘉新(北京)科技有限公司,116.338183,39.971558
天道计然(北京)网络技术有限公司,116.488121,39.999977
玲珑视界科技(北京)有限公司,116.227083,39.904392
北京丽兹行房地产顾问有限公司,116.480788,39.996806
北京万维亚太科技有限公司,116.529579,39.850959
北京翡翠教育科技有限公司昌平分公司,116.349469,40.089405
北京超凡幻想影视文化有限公司,116.535693,39.906568
青岛牧桐网络科技工程有限公司,120.437164,36.074832
北京国势通科技有限公司,116.354506,39.88887
秒钱(北京)信息服务有限公司,116.470231,39.985886
北京果壳宇宙教育科技有限公司,116.418274,39.949196
北京海奥伊美教育咨询有限公司,116.409844,40.005155
中科柏诚科技(北京)股份有限公司,116.466178,39.924488
银河水滴科技(北京)有限公司,116.333948,39.986972
企家有道网络技术(北京)有限公司,116.467988,40.012533
北京网脑科技发展有限公司,116.289513,40.04354
北京高阳捷迅信息技术有限公司,116.300591,40.024343
杏树林信息技术(北京)有限公司,116.44693,39.893093
北京飞流九天科技有限公司,116.421368,39.950263
华益天信科技(北京)有限公司,116.347868,40.067757
北京所问数据科技有限公司,116.48105,39.996794
百望股份有限公司,116.282844,40.033368
全时云商务服务股份有限公司,116.487969,40.009155
中国信息通信研究院,116.364052,39.95715
北京互联新网科技发展有限公司,116.375124,39.893993
公安部第三研究所,121.451693,31.206842
成都准星云学科技有限公司,104.039238,30.622709
北京新网数码信息技术有限公司,116.499407,39.782414
北京诺禾致源科技股份有限公司,116.354111,40.001723
北京嘉诚瑞杰信息技术有限公司,116.353717,40.015752
赛纳生物科技(北京)有限公司,116.270527,40.101156
上海开奈电子通讯有限公司,116.484871,40.006378
品尚电子商务有限公司,118.606026,24.880491
北京迪美策方市场咨询有限公司,116.31028,39.979366
北京优炫软件股份有限公司,116.349074,39.976004
北京康得新复合材料股份有限公司,116.465601,40.021608
天云融创数据科技(北京)有限公司,116.420842,39.893607
湖北微模式科技发展有限公司,116.303479,39.987278
北京缀新网络技术有限公司,116.329194,39.964123
上海明迪文化传媒有限公司北京分公司,116.495274,39.961139
平安科技(深圳)有限公司,116.459244,39.949945
北京掌趣科技股份有限公司,116.310059,39.977474
北京中能博泰科技有限公司,116.337618,39.97879
新华网股份有限公司,116.448998,39.893648
去哪儿网酒店云事业部,116.305733,39.977517
携程计算机技术(上海)有限公司,116.37854,39.971172
有利网,116.313061,39.979386
方正国际软件（北京）有限公司,116.31315,39.984622
北京睿思奥图智能科技有限公司,116.339966,39.97478
动视云(北京)科技有限公司,116.315344,39.983104
虫极科技(北京)有限公司,116.388865,39.971066
开网科技(北京)有限公司,116.235359,39.953237
深圳市商汤科技有限公司,116.330554,39.993187
北京国富如荷网络科技有限公司,116.304655,39.953099
深圳市芒柠科技有限公司,116.294571,40.050987
中科弘清(北京)科技有限公司,116.41396,40.03341
北京基石生命科技有限公司,116.23445,39.951386
合肥卓飞贸易有限公司,118.601743,31.995879
北京微吼时代科技有限公司,116.540815,39.911435
北京居诺技术开发中心,116.433196,39.920688
曌赫(北京)网络技术有限公司,116.513279,39.935162
迪原创新(北京)科技有限公司,116.286547,40.050065
致美生活(北京)科技有限公司,116.474918,40.012335
北京声智科技有限公司,116.303589,39.985934
北京蓝海龙文化传播有限公司,116.443108,39.92147
北京炬鑫网络科技有限公司,116.348698,40.066676
北京数起科技有限公司,116.42792,39.902896
北京沫之东生物技术有限公司,116.313538,40.037348
北京誉成云创科技有限公司,116.315297,39.981511
青岛中道企业管理有限公司,120.382665,36.066888
北京动力在线通信服务有限公司,116.3775,39.978936
信联资信服务有限公司,116.308901,39.980692
北京智慧流教育科技有限公司,116.323758,39.959335
北京玩乐付科技有限公司,116.347917,39.975219
北京青燕祥云科技有限公司,116.184822,39.905792
芯联达信息科技(北京)股份有限公司,116.32383,39.891943
时空幻境(北京)科技有限公司,116.438961,39.96791
摩比神奇(北京)信息技术有限公司,116.423252,39.911392
北京超图软件股份有限公司,116.505722,39.985586
北京九天微星科技发展有限公司,116.510551,39.895096
北京恒信志远科技有限公司,116.414726,40.039936
启迪智行科技(北京)有限公司,116.330702,39.994511
北京网融天下金融信息服务有限公司,116.454697,39.920048
北京中科晶云科技有限公司,116.339579,39.97469
北京国能日新系统控制技术有限公司,116.374569,40.009393
中亚宝丰国际物流有限公司,116.465881,40.02124
北京云起融通科技有限公司,116.338435,39.975268
北京中安国政信息科技有限公司,116.308699,39.963053
北京凌威锐盛信息技术有限公司,116.500869,39.978938
北京精准沟通传媒科技股份有限公司,116.3291,39.977058
北京威动科技有限公司,116.465601,40.021608
阁瑞钛伦特软件(北京)有限公司,116.541044,39.900124
北京众享比特科技有限公司,116.48823,39.971275
北京江融信科技有限公司,116.473625,40.012238
上海益庭信息科技有限公司,121.646318,30.983107
鲤鱼(上海)文化科技有限公司北京分公司,116.446724,39.847388
北京优迅医学检验所有限公司,116.235197,39.951153
伟业我爱我家集团,116.469221,40.019809
宝马（中国） 服务有限公司,116.42792,39.902896
融捷教育科技有限公司,116.331177,39.994198
北京中广创思文化传播有限公司,116.306992,39.919217
集客分享,116.491273,39.913607
北京长城电子装备有限责任公司,116.590295,39.893338
中关村人才市场,116.314754,39.984345
华云升达(北京)气象科技有限责任公司,116.227818,40.207189
北京华热科技发展有限公司,116.435183,39.957677
吉林纪元时空动漫游戏科技集团股份有限公司北京分公司,116.498508,39.978623
互联网域名系统北京市工程研究中心有限公司,116.335898,39.980482
北京纳网科技有限公司,116.311506,40.040451
索科维尔(北京)软件系统有限公司,116.339579,39.97469
中电科海洋信息技术(北京)有限公司,116.186879,39.936731
北京棱镜互动科技有限公司,116.36813,39.85467
北京酷鱼畅享科技有限公司,116.539721,39.91227
联想新视界(北京)科技有限公司,116.298785,40.053195
不鸣科技(杭州)有限公司,120.068575,30.291031
中基凌云科技有限公司,116.337313,39.950501
北京兴农丰华科技有限公司,116.277481,40.02067
北京安德信业信息咨询有限责任公司,116.406769,39.998764
北京金泰众和科技有限责任公司,116.298938,39.828923
北京源清慧虹信息科技有限公司,116.303067,40.054749
中国建筑科学研究院,116.413665,39.968327
北京逸文医疗信息技术有限公司,116.51914,39.926857
深圳市快乐人生人力资源有限公司,114.04038,22.52682
伊必汽车软件(上海)有限公司,116.339184,39.974951
长城宽带网络服务有限公司,116.441479,39.92225
鹤壁高新区高新技术企业培育服务中心,114.292707,35.749599
卓越工坊(北京)科技有限公司,116.387947,40.000423
广州兴图科技有限公司,116.298056,39.959912
北京奇思客网络科技有限公司,116.314331,39.984566
北京贝斯平云科技有限公司,116.486977,39.999874
西安绿点信息科技有限公司,116.372585,39.913341
北京远光瑞为软件技术有限公司,116.284795,39.8354
北京瑞客宏数据技术有限公司,116.508442,39.803882
北京鼎新同人管理咨询有限公司,116.388865,39.971066
北京核利电子商务有限公司,116.533544,39.76714
中玉金标记(北京)生物技术股份有限公司,116.273071,40.098353
北京社文科技有限公司,116.307147,39.973069
北京摩拜科技有限公司,116.467804,39.948564
泰禾(福建)集团有限公司,116.463306,39.907641
北京百知尚行科技有限公司,116.353917,40.008612
瞬联讯通科技(北京)有限公司,116.443108,39.92147
销售易,116.455635,39.924131
北京锐安科技有限公司,116.35838,40.04439
北京恒昌利通投资管理有限公司,116.279932,40.047555
任仕达企业管理(上海)有限公司,116.31088,39.99281
紫光云数科技有限公司,116.351631,39.977163
北京世纪高通科技有限公司,116.245414,40.072335
北京网秦天下科技有限公司,116.41991,39.951283
海航生态科技集团有限公司,116.427918,39.958182
北京鸿坤伟业房地产开发有限公司,116.377777,39.782511
东方瑞通（北京）咨询服务有限公司,116.323875,39.991055
武汉达梦数据库有限公司,116.323485,39.965354
深圳市雁联技术服务有限公司,116.367151,39.918419
北京金信网银金融信息服务有限公司,116.377607,39.993582
广州汇智通信技术有限公司北京分公司,113.358218,23.135057
北京火星盒子科技有限公司,116.507637,39.984912
绿盟科技,116.304962,39.946072
世纪文都教育科技集团股份有限公司,116.310859,39.929401
北京智慧云行科技有限责任公司,116.567067,39.742587
北京两只老虎电子商务有限公司,116.481592,39.99585
泛海控股股份有限公司,116.420749,39.90747
北京翼聚源软件科技有限公司,116.302461,40.053397
中科科猫(北京)科技有限公司,116.372557,39.87838
北京商联在线科技有限公司,116.335098,39.953966
北京安力斯环境科技股份有限公司,116.308179,40.039425
广州杰颉软件科技有限公司,116.403892,39.994082
北京首证投资顾问有限公司,116.423463,39.84116
北京恒远志成信息服务有限公司,116.310044,40.049121
中软国际科技服务有限公司深圳分公司,116.469778,39.98648
展讯通信(上海)有限公司,116.352028,39.977221
优信集团,116.480788,39.996806
咪咕文化科技有限公司,116.370852,39.909578
软通动力信息技术(集团)有限公司,116.42792,39.902896
Michael Page,116.42792,39.902896
智联招聘网,116.473195,39.993253
亿阳信通股份有限公司,116.220581,39.957062
国安社区(北京)科技有限公司,116.451861,39.920439
深圳腾讯计算机系统有限公司,116.42792,39.902896
网信集团有限公司,116.465871,39.958237
中国华戎科技集团有限公司,116.371079,39.968593
武汉元光科技有限公司,116.410411,39.995823
北京纯粹旅行有限公司,116.474838,39.901096
乔迪金控(北京)资产管理有限公司,116.48242,39.91613
北京金惠新悦科技有限公司,116.352526,39.959388
信美人寿相互保险社,116.35983,39.900428
奥琦玮信息科技(北京)有限公司,116.393639,40.003719
北京小帽科技有限公司,116.307884,40.036828
北京志翔科技股份有限公司,116.352047,39.985718
北京中达恒业科技发展有限公司,116.311636,40.029581
北京联合智云科技有限公司,116.287753,39.824768
中科天玑数据科技股份有限公司,116.326666,39.981906
知康科技(北京)有限公司,116.309204,40.040497
北京咔啦酷科技文化有限公司,116.431725,39.904137
北京天星资本股份有限公司,116.433145,39.970293
北京跬步众成信息技术有限公司,116.415134,40.036996
巧达科技(北京)有限公司,116.311797,39.983663
上海派拉软件股份有限公司,116.312443,40.034133
深圳市文鼎创数据科技有限公司,116.298056,39.959912
北京太平洋莱特科技有限公司,116.504828,39.983878
宝驾出行(北京)科技有限公司,116.39025,39.980294
北京海象世纪信息服务有限公司,116.495842,39.961044
北京得力助手信息技术有限公司,116.307149,40.036538
北京深知无限人工智能研究院有限责任公司,116.292868,40.047683
上海迈外迪网络科技有限公司北京分公司,116.437704,39.9068
北京华宇潞丰建材有限公司,116.534837,39.766968
普华永道中天会计师事务所(特殊普通合伙)北京分所,116.42792,39.902896
北京老虎致远科技有限公司,116.31561,39.983413
中科三清科技有限公司,116.364328,39.976966
四川希氏异构医疗科技有限公司,116.595911,39.924284
北京太合娱乐文化发展股份有限公司,116.498129,39.953492
北京华睿慧脑科技中心(有限合伙),116.30706,39.989996
上海逸云信息科技发展有限公司,116.47658,39.906724
北京盘古奇点投资管理有限公司,116.473239,39.913099
爱股票,116.300561,40.052928
北京深瞐科技有限公司,116.233737,39.953106
北京币码网络科技有限公司,116.418152,39.996788
北京易代步科技有限公司,116.308336,40.051807
众智融金(北京)资产管理有限公司,116.448131,39.958375
搜狐视频,116.325403,39.983335
途家网网络技术(北京)有限公司,121.47044,31.271669
李宁（中国）体育用品有限公司,116.51736,39.917001
龙文教育集团,116.410056,39.968212
北京北森云计算股份有限公司,116.314453,40.035921
畅捷通信息技术股份有限公司,116.244057,40.068669
北京江南天安科技有限公司,116.378536,39.970753
北京海泰方圆科技股份有限公司,116.292868,40.047683
北京金信润天信息技术股份有限公司,116.279881,39.931803
量子云未来(北京)信息科技有限公司,116.453121,39.932944
太极计算机股份有限公司,116.473019,40.02252
鹏全融通(北京)支付科技有限公司,116.462333,39.955075
北京兆信信息技术股份有限公司,116.413864,39.978935
好大夫在线,116.500229,39.913494
北京翼鸥教育科技有限公司,116.335584,39.97866
北京中佳信科技发展有限公司,116.49578,39.978595
北京农信互联科技有限公司,116.31639,39.977679
深圳市和讯华谷信息技术有限公司,116.476655,39.912667
中国康辉旅游集团有限公司,116.466553,39.934441
博易创为(北京)数字传媒股份有限公司,116.301934,40.054588
联发科技股份有限公司,116.42792,39.902896
修曼(上海)商务咨询有限公司,116.427983,39.907586
美菜网,116.401367,39.972202
北京安洲科技有限公司,116.308543,40.037519
北京多宝树影视科技有限公司,116.51674,39.949109
北京融信数联科技有限公司,116.311171,40.037122
北京中搜网络技术股份有限公司,116.328369,39.971985
北京爱农驿站科技服务有限公司,116.353148,39.941724
北京埃德维亚医疗科技有限公司,116.494366,39.914884
北京艾瑞思机器人技术有限公司,116.297485,40.044389
北京康普森生物技术有限公司,116.266949,40.101474
北京中广瑞波科技股份有限公司,116.280171,39.944939
北京创新指数科技有限公司,116.31424,39.984627
北京的卢深视科技有限公司,116.350555,40.00901
爱卡汽车网,116.386646,39.991129
同方股份有限公司,116.3394,39.999845
兴唐通信科技有限公司,116.354956,39.979839
深圳市法本信息技术股份有限公司,116.466485,39.995197
神州数码系统集成服务有限公司深圳分公司,116.351616,39.897576
爱奇艺,116.313177,39.983723
北京外企德科人力资源服务上海有限公司,116.180218,40.059984
大连斯锐信息技术有限公司,116.42792,39.902896
华图教育集团,116.319209,39.97654
搜狐畅游,116.205776,39.909825
山东科瑞控股集团有限公司,116.532544,39.946414
安邦保险集团股份有限公司,116.45559,39.907678
大唐高鸿数据网络技术股份有限公司,116.254766,39.980263
新华三技术有限公司,104.044434,30.624306
北京小米通讯技术有限公司,116.332787,40.030521
北京合众思壮科技股份有限公司,116.481911,39.800164
中融民信资本管理有限公司,116.457245,39.933125
北京金服小微科技有限公司,116.388112,39.99904
北京博乐科技有限公司,116.416952,40.031271
图灵通诺(北京)科技有限公司,116.453238,39.91869
北京多维视通技术有限公司,116.331212,39.980846
融慧金科金融服务外包(北京)有限公司,116.47727,39.912055
北京赛思天成科技有限责任公司,116.42792,39.902896
古点投资有限公司,116.35125,39.977761
北京开拓天际科技有限公司,116.353198,39.977341
北京永信至诚科技股份有限公司,116.297569,40.048367
怡和祥云(北京)科技有限公司,116.355957,39.953719
北京人人金服投资管理有限公司,116.452057,39.914242
北京意锐新创科技有限公司,116.298785,40.053195
北京多特蒙咨询服务有限公司,116.336116,40.0708
联科集团-联智科技（北京）有限公司,116.354772,39.977834
中望金服信息科技(北京)有限公司,116.515,39.903481
北京露米埃动画制作有限公司,116.447404,39.878912
深圳市英特方略企业管理顾问有限公司,116.42792,39.902896
北京神州泰岳信息工程技术有限公司,116.323591,39.959454
北京乐语世纪科技集团有限公司,116.47384,39.902569
北京同城翼龙网络科技有限公司,116.321693,39.954033
青牛（北京）技术有限公司,116.298672,39.924714
北京拓明科技有限公司,116.367609,39.994316
北京智慧图科技发展有限责任公司,116.351258,39.977169
尚智逢源(北京)基金销售有限公司,116.460175,39.961163
北京同仁堂健康药业股份有限公司,116.521065,39.779517
宝宝树(北京)信息技术有限公司,116.462476,39.928153
北京红云融通技术有限公司,116.298685,39.925174
北京精友时代信息技术发展有限公司,116.303675,40.045825
北京集奥聚合科技有限公司,116.437053,39.940435
新晨科技股份有限公司,116.506604,39.902393
CCDI悉地国际,116.433059,39.954591
北京优全智汇信息技术有限公司,116.448498,39.962387
联众游戏,116.467445,39.995246
新浪动漫,116.544364,39.895538
北京桔牛科技有限公司,116.417032,40.033341
北京龙创腾达科技有限公司,116.480085,39.986834
钧云(上海)网络科技有限公司,116.491273,39.913607
北京金和网络股份有限公司,116.303067,40.054749
世华万向资讯(北京)有限公司,116.499977,39.782262
北京和堂金服科技股份公司,116.446019,39.970221
联信弘方(北京)科技股份有限公司,116.491267,39.913006
乐影网,116.438946,39.895304
银河互联网电视有限公司,116.293098,39.820732
瑞斯康达科技发展股份有限公司,116.280485,40.04555
北京若为信息技术有限公司,116.456054,39.933081
比亚迪股份有限公司,116.388865,39.971066
中鸿基控股有限公司,116.472794,39.909186
北京国承万通信息科技有限公司,116.304557,39.984216
北京安高盟科技服务有限公司,116.468883,39.913854
北京大数医达科技有限公司,116.296994,40.050593
北京青云互动科技有限公司,116.452767,39.932472
北京君正集成电路股份有限公司,116.285198,40.046487
北京恒天易开科技股份有限公司,116.448131,39.958375
山西云时代技术有限公司,112.549717,37.87046
北京天地连线科技有限公司,116.291186,40.047005
北京毅新博创生物科技有限公司,116.279692,40.098223
东莞材料基因高等理工研究院,113.885047,22.924749
北京微步在线科技有限公司,116.308081,39.978652
北京芯愿景软件技术有限公司,116.159374,40.064525
极速蜗牛(北京)投资管理有限公司,116.461618,39.923337
北京长空一画影视科技有限公司,116.486048,39.989738
行云智网络科技(北京)有限公司,116.458331,39.9056
武汉迷你付金融增值技术开发有限公司,116.184271,39.906014
北京乐呵互动信息技术有限公司,116.501132,39.9932
北京优乐复生科技有限责任公司,116.26745,40.099668
北京质汇百川人才科技有限公司,116.604576,39.902179
北京象翌微链计算技术有限公司,116.325263,39.94775
北京云账房信息技术有限公司,116.694687,39.871216
游瑞世纪(北京)管理咨询有限公司,116.35267,40.000958
成都众创互乐科技有限公司,104.066978,30.546119
北京艾汉特管理顾问有限公司,116.4691,39.892261
厦门当代控股集团有限公司,116.456389,39.920125
北京清鹤科技有限公司,116.313686,40.067303
北京聚辉管理咨询有限公司,116.31088,39.99281
北京天景隆软件科技有限公司,116.48105,39.996794
北京云乔管理咨询有限公司,116.327999,39.836502
北京阿博茨科技有限公司,116.351553,40.008722
北京鱼游四海科技有限公司,116.298056,39.959912
天脉聚源(北京)传媒科技有限公司,116.45605,39.933083
北京通付盾数据科技有限公司,116.385037,39.968684
北京升鑫网络科技有限公司,116.30719,40.036184
北京极速传媒广告有限公司,116.486313,40.000343
速感科技(北京)有限公司,116.345822,39.977481
中国电信集团系统集成有限责任公司,116.368172,39.940103
北京橙鑫数据科技有限公司,116.473419,39.952965
北京楚天龙科技发展有限公司,116.288653,39.960691
北京猎豹移动科技有限公司,116.536249,39.931645
北京想就拿信息科技有限公司,116.313061,39.979386
北京思特奇信息技术股份有限公司,116.367167,39.978311
北京恒光信息技术股份有限公司,116.288099,39.960923
北京同城必应科技有限公司,116.283075,40.048612
人人车,116.440842,40.042019
泰康养老保险股份有限公司,116.362025,39.906306
深圳市长亮科技股份有限公司,116.444,40.069813
玖远投资股份有限公司,116.514598,39.907053
美业邦(北京)科技有限公司,116.402331,39.973849
北京汇金行信息科技有限公司,116.469221,40.019809
北京易思捷信息技术有限公司,116.4151866,40.00512722
北京镁伽机器人科技有限公司,116.3174,40.067031
歌德盈香股份有限公司,116.53522,39.809687
渤海人寿保险股份有限公司,116.456764,39.958191
博尔诚(北京)科技有限公司,116.532715,39.771561
思博伦通信科技（北京）有限公司,116.352047,39.985718
北京鑫泰能源股份有限公司,116.390041,39.870415
北京新松佳和电子系统有限公司,116.388865,39.971066
北京思源互联科技有限公司,116.458036,39.996428
亚欧联盟(北京)会展有限公司,116.493389,39.898717
北京昆仑联通科技发展股份有限公司,116.338914,39.99232
北京上元信安技术有限公司,116.307884,40.036828
天津益阳煜赢网络科技有限公司,116.481513,39.996626
北京宜搜天下科技有限公司,116.351684,40.000189
北京和远科技有限公司,116.53271,39.917467
北京智云奇点科技有限公司,116.303589,39.985934
北京海鑫科金高科技股份有限公司,116.295564,39.821203
浙江玩美数据科技有限公司,120.587861,29.988948
北京德亚维科技有限公司,116.375121,39.908342
北京筷易采供应链管理有限公司,116.451861,39.920439
乐融多源(北京)科技有限公司,116.454216,39.91575
北京百家互联科技有限公司,116.282935,40.048632
北京中联网盟科技股份有限公司,116.436708,39.982713
北京泰理康科技有限公司,116.371282,39.834035
北京亿马先锋汽车科技有限公司,116.497065,39.747609
中美联泰大都会人寿保险有限公司,116.416868,39.909876
北京牛仔网络科技股份有限公司,116.416267,39.968672
新博医疗技术有限公司,116.540973,39.765536
北京裂变科技有限公司,116.417035,40.031998
华夏出行有限公司,116.486676,40.009092
兴华永恒(北京)科技有限责任公司,116.235169,40.068244
北京信雅乐达科技有限责任公司,116.349074,39.976004
沣邦融资租赁(上海)有限公司,116.306313,39.866242
上海文谛资产管理有限公司,116.456767,39.968395
北京乐学通教育科技有限公司,116.449555,39.936147
北京亿赛通科技发展有限责任公司,116.308731,40.051803
北京华正明天信息技术股份有限公司,116.320072,39.971749
亚创博彦(北京)科技有限公司,116.485473,40.010207
北京允睿讯通科技有限公司,116.333649,39.993897
北京国文互联教育科技有限公司,116.338039,39.970786
北京快乐茄信息技术有限公司,116.287983,40.046896
嘀一科技(北京)有限公司,116.474914,40.01235
北京未来聚点信息技术有限公司,116.515109,39.789207
北京中超伟业信息安全技术股份有限公司,116.2316,40.205834
北京铁皮猫网络技术有限责任公司,116.46356,39.920501
北京赛普力量教育科技有限公司,116.35895,39.758968
北京物灵智能科技有限公司,116.489119,39.999429
北京英视睿达科技有限公司,116.382083,39.972241
北京思享电子商务咨询服务有限公司,116.339831,39.847231
玖玖投资集团有限公司,116.390789,39.979369
北京优仕美成管理咨询有限公司,116.42543,39.997222
郑州三友软件科技有限公司,116.484871,40.006378
北京风信科技有限公司,116.41991,39.951283
钱帮(北京)金融信息服务有限公司,116.490589,39.971695
北京万索商务咨询有限公司,116.287149,39.858427
象辑知源(武汉)科技有限公司,116.336595,39.952609
北京车联天下信息技术有限公司,116.407,39.975189
深睿医疗,116.308838,39.981767
苏州瑞小云信息科技有限公司,116.373853,39.912275
SEVEN-STAR CONSULTING CHINA,111.748426,40.842723
北京新美互通科技有限公司,116.423322,39.954225
北京离线国际科技有限公司,116.664376,40.161597
北京国信安石科技有限责任公司,116.417395,40.032147
威霖管理顾问(北京)有限公司,116.42792,39.902896
北京电信通畅达信息有限公司东城分公司,116.350555,40.00901
珞石(山东)智能科技有限公司北京分公司,116.312114,40.039429
北京今日易购电子商务有限公司,116.440414,39.960033
北京数果科技有限公司,116.469068,40.014142
圣亚云鼎支付有限公司,116.470122,39.914201
北京安博通科技股份有限公司,116.284664,40.046134
北京凯睿达体育咨询有限公司,116.287842,40.098083
久远谦长(北京)技术服务有限公司,116.45849,39.912552
北京青蚨在线网络科技有限公司,116.44931,39.9349
北京思德泰科科技发展有限公司,116.490693,39.968983
得视特信息科技(上海)有限公司北京分公司,116.500531,39.986177
第四范式(北京)技术有限公司,116.314812,40.036076
笨牛（北京）网络技术有限公司,116.328507,40.058531
北京久康国际健康管理股份有限公司,116.396037,39.929585
中科博宏(北京)科技有限公司,116.407,39.975189
北京宜通华瑞科技有限公司,116.49379,39.97669
中科创达软件股份有限公司,116.37788,39.98355
北京知因智慧数据科技有限公司,116.451355,39.960819
华睿泰科技(北京)有限公司,116.414524,39.909483
北京汇元网科技股份有限公司,116.309897,39.983621
中益善源(北京)科技有限公司,116.481056,39.996525
北京真时科技有限公司,116.352047,39.985718
中国邮政储蓄银行股份有限公司,116.42792,39.902896
北京水母科技有限公司,116.568089,39.782786
北京睿呈时代信息科技有限公司,116.500708,39.975783
北京信威通信技术股份有限公司,116.299093,40.045511
北京中存超为科技有限公司,116.333797,39.98805
北京中科恒硕科技有限公司,116.524132,40.117331
一佳(北京)技术咨询有限公司,116.42792,39.902896
北京中飞艾维航空科技有限公司,116.516213,39.761232
北京致医健康信息技术有限公司,116.507828,39.784367
北京猎手互娱科技有限公司,116.490629,39.985199
北京优天下科技股份有限公司,116.406768,39.975053
凯易讯网络技术开发(南京)有限公司,118.775867,31.973329
领途教育咨询(北京)有限公司,116.160605,40.0644
北京万企科技有限公司,116.581176,39.921601
美时杰(北京)科技发展有限公司,116.288174,40.048932
北京中诺智电科技有限公司,116.232337,40.204144
北京爱接力科技发展有限公司,116.473008,39.912105
北京蜂向信息科技有限公司,116.3291,39.977058
华耀(中国)科技有限公司,116.474185,39.951093
北京易商通科技股份有限公司,116.465237,39.959967
众德迪克科技(北京)有限公司,116.525512,39.784391
北京万方软件股份有限公司,116.315532,39.908753
北京快创互娱网络科技有限公司,116.462624,39.86771
北京中科紫鑫科技有限责任公司,116.541279,39.801544
滨江华康(北京)生物科技有限公司,116.537341,39.808088
广州御银科技股份有限公司北京分公司,116.35063,39.938813
北京大唐国际旅行社有限公司,116.441681,39.893102
中国电子技术标准化研究院,116.42225,39.94908
宽拓(北京)科技有限公司,116.35063,39.938813
教育部学校规划建设发展中心,116.336595,39.952609
北京信诺时代科技发展有限公司,116.352047,39.985718
北京牛投邦科技咨询有限公司,116.450996,39.9609
北京安信广通新技术有限公司,116.411572,39.96171
西安伯恩人力资源咨询有限公司,108.892484,34.216075
指尖上行(北京)互动娱乐科技有限公司,116.48105,39.996794
北京金百万餐饮管理有限责任公司,116.443108,39.92147
北京汉云优品科技有限公司,116.440346,39.96037
人人公司,116.496864,39.975047
重庆誉存大数据科技有限公司,116.460501,39.910883
问众智能信息科技(北京)有限公司,116.315056,39.978344
凡特仁(北京)科技有限公司,116.340035,40.087978
北京上格云技术有限公司,116.344897,40.046923
北京一览科技有限公司,116.466003,40.021023
北京鸿湾科技发展有限公司,116.289436,39.960247
北京北箱信发包装有限公司,116.393918,39.890705
北京炎黄盈动科技发展有限责任公司,116.305765,40.043355
北京中标华安信息技术有限公司,116.311707,40.033079
中软国际ETC,116.360397,39.922403
北京安无忧食品有限公司,116.376116,39.903173
北京中交兴路信息科技有限公司,116.288708,40.04471
北京名博教育科技有限公司,116.289512,40.145187
北京安信天行科技有限公司,116.304359,39.984399
法国施维雅,116.459298,39.918784
北京铁道工程机电技术研究所股份有限公司,116.334021,39.984641
上海森亿医疗科技有限公司,116.33996,39.976476
上海兴畅网络技术股份有限公司,116.305157,40.046186
众筹宝网络科技(北京)有限公司,116.462472,39.894897
北京财证通信息技术有限公司,116.49615,39.971985
好运邦物联科技(天津)有限公司,121.514158,31.299059
恒宝股份,116.359111,39.921044
达令心潮(北京)商贸有限公司朝阳分公司,116.495156,39.9152
北京天神互动科技有限公司,116.438903,39.89506
中电长城网际系统应用有限公司,116.474014,40.106563
北京米文动力科技有限公司,116.377667,39.979136
北京融汇金信信息技术有限公司,116.310922,39.901061
寰宇慧旅(北京)科技有限公司,116.435567,39.942108
北京维泰明辉信息技术有限公司,116.312443,40.034133
凡普金科企业发展(上海)有限公司,116.433762,39.920158
北京航天光达科技有限公司,116.304081,39.961624
北京雅森科技发展有限公司,116.481246,39.996735
POLYCOM通讯技术(北京)有限公司,116.459801,39.949734
北京北大千方科技有限公司,114.465919,38.066145
休食哥连锁超市股份有限责任公司,116.462191,39.92737
上海魅思电影科技有限公司北京分公司,116.49566,39.97787
北京儒奥医疗科技有限公司,116.168997,39.861533
北京珞安科技有限责任公司,116.333883,39.987718
北京狸米科技有限公司,116.433873,40.031373
北京中榕基信息技术有限公司,116.499083,39.748075
中金慈云健康科技有限公司,116.450586,39.948647
人人贷商务顾问(北京)有限公司,116.45539,39.961592
北京联合货币兑换股份有限公司,116.465777,39.958579
北京柏谊信息科技有限公司,116.327856,39.984774
北京联诚智胜信息技术股份有限公司,116.365857,39.986303
北京圣谷同创科技发展有限公司,116.23936,40.073405
北京无极慧通科技有限公司,116.306388,39.977419
彩虹无线(北京)新技术有限公司,116.459812,39.955578
北京创鑫旅程网络技术有限公司,116.494528,39.990025
北京奋青榜科技有限公司,116.515842,39.937042
通审软件(北京)有限公司,116.291608,39.822311
Wisers Information Limited,116.455859,39.963911
北京安信多乐科技有限公司,116.401169,39.971535
北京航天云路有限公司,116.275986,39.916603
北京蓝海巨浪科技有限公司,116.314453,39.984558
北京啪啪易行科技发展有限公司,116.516858,39.92375
北京海誉动想科技股份有限公司,116.498387,39.976125
北京贝虎机器人技术有限公司,116.306386,40.038951
北京知道创宇信息技术有限公司,116.480665,39.996404
广州一一网络技术有限公司,116.319802,39.98294
北京搜贷天下网络技术有限公司,116.350009,39.943697
虎特信息科技(上海)有限公司北京分公司,116.404872,39.994479
北京华信佳音医疗科技发展有限责任公司,116.286306,39.832779
北京海颐软件有限公司,116.299507,40.0448
芯盾(北京)信息技术有限公司,116.296972,40.049063
上海仕领企业管理咨询有限公司,116.487807,39.916289
北京创享时代网络科技有限公司,116.575984,39.78977
中科三阳(北京)科技有限公司,111.773665,37.119838
匡衡软件(北京)有限公司,116.303998,40.042732
北京富赛教育咨询有限公司,116.350009,39.943697
北京天空卫士网络安全技术有限公司,116.50817,39.803896
北京新创娱游科技有限公司,116.302292,40.054497
凌云互联(北京)医疗信息技术有限公司,116.407005,40.002071
新智认知数据服务有限公司,116.35838,40.04439
北京聚通达科技股份有限公司,116.507914,39.903565
山海紫螺(北京)科技有限公司,116.348694,39.938772
北京威速科技有限公司,116.338435,39.975268
北京国基科技股份有限公司,116.303265,40.046221
大公智慧(北京)科技股份有限公司,116.488318,39.91894
长城计算机软件与系统有限公司,116.333998,39.984993
聚美优品,116.288174,40.048932
北京聚光绘影科技有限公司,116.506676,39.955325
北京一路无忧国际商务有限公司,116.378375,39.993562
北京世纪鹤图软件技术有限责任公司,116.313599,40.053902
北京东方捷通科技发展有限公司,116.298056,39.959912
北京慧辰资道资讯股份有限公司,116.497229,39.976046
北京盈博讯彩网络科技有限公司,116.466553,39.934441
北京元恒时代科技有限公司,116.366911,39.97829
北京新地世达科技发展有限公司,116.325403,39.983335
微连锁(北京)科技发展有限公司,116.298211,39.947085
北京坤茂鼎久资产管理有限公司,116.491792,39.898047
北京艾利艾互联网科技股份有限公司,116.557369,39.912174
美亚宏信(北京)信息技术有限公司,116.298256,40.047337
魔利互通(北京)信息技术有限公司,116.515025,39.787641
北京红赢科技有限公司,116.325058,39.947042
北京汇智恒通科技有限公司,116.298056,39.959912
北京东方融创信息技术有限公司,116.43289,39.920282
无锡数信互融科技发展有限公司北京办事处,116.424978,39.93324
北京睦合达信息技术股份有限公司,116.481901,39.990758
北京勤诚互动广告有限公司,116.47371,39.902596
北京唐吉诃德科技有限公司,116.298889,39.991177
科盾科技股份有限公司北京分公司,116.323553,39.96077
北京有教未来教育科技有限公司,116.303589,39.985934
北京逍遥天地科技文化有限公司,116.639459,39.877365
北京百科康讯科技有限公司,116.481933,39.911775
北京智教通联科技有限公司,116.438397,39.923652
北京博习园教育科技有限公司,116.282844,40.033368
九财科技发展(北京)有限公司,116.452207,39.912954
上海有师网络科技有限公司,116.375115,39.893385
金雅拓,116.310072,39.984547
润开(北京)科技有限公司,116.493042,39.915421
郑州大咖信息科技有限公司,116.301619,40.053
北京天下秀科技股份有限公司,116.454201,39.943401
北京长盛浩业资产管理有限公司,116.330702,39.994511
易到用车,116.481124,39.986148
成都卫士通信息产业股份有限公司北京分公司,116.292936,39.826581
点滴身边网络技术(北京)有限公司,116.456475,39.919874
天瓴(北京)投资管理有限公司,116.287561,39.942921
艾吉泰康生物科技(北京)有限公司,116.27117,40.09947
银赁中国融资租赁(控股)有限公司,116.476261,39.907403
北京易道博识科技有限公司,116.309739,40.028611
北京中兴通控股有限公司,116.284847,40.046208
南京中兴力维软件有限公司,116.42792,39.902896
中国兵器工业计算机应用技术研究所,116.300671,39.947402
中晟智信数据科技(北京)有限公司,116.463205,39.906892
北京麦迪克斯科技有限公司,116.157901,40.065267
北京致臻智造科技有限公司,116.359972,40.039972
北京晋辉科技有限公司,116.346068,40.067675
优必爱信息技术(北京)有限公司,116.479801,39.986669
北京市国路安信息技术股份有限公司,116.282284,39.94549
宝清县虎盟网络科技有限公司,116.42792,39.902896
博易智讯（北京）信息技术有限公司,116.438475,39.922795
北京屹品文汇科技有限责任公司,116.441664,39.921708
南京华盾电力信息安全测评有限公司,116.42792,39.902896
华夏天信(北京)智能低碳技术研究院有限公司,116.4748,40.011971
启迪汇智(北京)投资管理有限公司,116.330429,39.993233
北京春秋永乐文化传播股份有限公司,116.371878,39.969424
上海华点云生物科技有限公司,116.494366,39.914884
北京星水友联供应链管理有限责任公司,116.441589,39.909348
盈嘉互联（北京）科技有限公司,116.191689,39.937351
北京小牛飞腾科技有限公司,116.409202,39.997994
北京握奇数据股份有限公司,116.474915,40.012264
北京中视启明文化传媒有限公司,116.48738,39.887038
黑龙江省公众信息产业有限公司,116.42792,39.902896
深圳小辣椒科技有限责任公司,116.478843,39.986434
北京缔联科技有限公司,116.314326,39.980222
朗聘企业管理咨询(上海)有限公司,116.42792,39.902896
北京量子空间科技有限公司,116.466485,39.995197
北京天信瑞安科技股份有限公司,116.347524,40.067121
北京中盾安全技术开发公司,116.324744,39.936963
北京航天无人机系统工程研究所,116.249571,40.07046
中时瑞安(北京)网络科技有限责任公司,116.346932,39.958201
北京司米家居有限公司,116.539375,39.76572
北京宝融汇资产管理有限公司,116.354736,39.98834
北京陌陌信息技术有限公司,116.481162,39.996092
极鱼(北京)科技有限公司,116.490455,39.979843
智慧农科信息技术有限公司,116.324272,39.961536
扬州新讯科技有限公司北京分公司,116.301934,40.054588
北京蜂鸟视图科技有限公司,116.407,39.975189
北京德睿锦程管理顾问有限公司,116.254766,39.980263
北京中科智营科技发展有限公司,116.40684,39.974358
北京联云天下科技有限公司,116.452533,39.904644
北京鼎力创世科技有限公司,116.480484,39.986584
北京乐天派网络科技有限公司,116.440842,40.042019
北京赛博兴安科技有限公司,116.313457,40.068435
北京众荟信息技术股份有限公司,116.378536,39.970753
硅谷数模半导体(北京)有限公司,116.3231,39.966197
北京热云科技有限公司,116.481331,39.996342
北京奇客创想科技股份有限公司,116.253127,39.981148
北京中科信利技术有限公司,116.325866,39.986287
北京力美传媒科技股份有限公司,116.470989,39.907587
北京华电天德科技园有限公司,116.310073,40.091111
乐约信息科技(上海)有限公司,116.436086,39.930589
北京睿至大数据有限公司,116.4886,40.0001
北京理工新源信息科技有限公司,116.311897,39.939251
国金基金管理有限公司,116.308975,39.934966
北京工畅信达科技有限公司,116.379265,39.907829
中电数据服务有限公司,116.351258,39.977169
北京亿隆汇诚投资管理有限责任公司,116.52121,39.778019
北京世纪鼎点软件有限公司,116.329299,39.995312
北京茵沃汽车科技有限公司,116.357652,40.041947
视觉中国集团,116.491139,39.978362
北京华大九天软件有限公司,116.347217,39.890399
北京图盟科技有限公司顺义分公司,116.482738,39.989487
北京用友审计软件有限公司,116.234611,40.067611
大锤资产,116.311503,39.982072
北京大数据研究院,116.308907,39.992143
会找房(北京)网络技术有限公司,116.301262,40.055171
北京博晓通科技有限公司,116.324353,39.96448
特斯联(北京)科技有限公司,116.45223,39.947105
看法(北京)科技有限公司,116.515664,39.908495
北京地平线信息技术有限公司,116.31561,39.983413
北京轩宇信息技术有限公司,116.329834,39.980835
信德管理顾问（大连）有限公司,116.517429,39.923168
天曦网络科技(北京)有限公司,116.339191,39.998363
安泰得(北京)软件科技有限公司,116.349933,39.975578
飞驰镁物(北京)信息服务有限公司,116.512017,39.894676
黑星互联网科技(上海)有限公司,116.317079,39.981599
北京指尖美景传媒广告有限公司,116.466438,39.905145
众联数据技术(南京)有限公司,116.426182,39.910595
北京赢鼎教育科技股份有限公司,116.3312,39.993176
第一视频(北京)网络技术有限公司,116.486676,40.009092
北京佰才邦技术有限公司,116.30318,40.044258
北京华创网安科技股份有限公司,116.353783,40.002129
中云网安科技(北京)有限公司,116.460934,39.915013
深圳海红天远微电子有限公司,116.42792,39.902896
北京新联铁集团股份有限公司,116.349489,39.944085
北京融工场科技有限公司,116.460796,39.914085
智链数据科技(南通)有限公司,116.350598,39.939133
中企品研（北京）品牌顾问股份有限公司,116.354778,39.951003
北京俏花旦化妆品有限公司,116.433426,39.846413
中盈优创资讯科技有限公司,116.318717,39.971213
臻和(北京)科技有限公司,116.36607,39.982583
雷尚(北京)科技有限公司,116.35122,39.977148
北京心系新生命文化传媒有限责任公司,116.4175,39.917582
北京信复创值投资管理有限公司,116.392184,39.942403
世纪乐知（北京）网络技术有限公司,116.467387,39.995589
北京超萌国际文化有限公司,116.333743,39.99236
北京康拓红外技术股份有限公司,116.332905,39.977072
北京创源微致软件有限公司,116.265219,39.856711
北京天安未来科技有限公司,116.307451,39.957206
北京七海芝铭信息咨询有限公司,116.476655,39.912667
北京联想超融合科技有限公司,116.298785,40.053195
北京娱游天下科技有限公司,116.283012,40.04731
中视金桥国际传媒有限公司北京分公司,116.45278,39.916166
斯润天朗(北京)科技有限公司,116.290756,39.823467
北京金源茂丰新技术开发有限公司,116.425805,40.033412
中关村科技软件股份有限公司,116.295921,40.051389
触脉(北京)咨询有限公司,121.429018,31.228379
北京星影聚合互联网科技有限公司,116.514937,39.893591
航天图景(北京)科技有限公司,116.633241,40.105046
北京哈哈镜电子商务有限公司,116.424681,39.940837
交科院科技集团有限公司,116.41861,39.977566
康宁益生医药科技有限公司,116.373178,40.03666
北京华樾教育科技有限公司,116.310098,39.983606
北京大千阳光数字科技股份有限公司,116.317656,40.038658
天神互动(北京)娱乐科技有限公司,116.438903,39.89506
益科正润金控投资集团有限公司,116.512418,39.906876
未来(北京)黑科技有限公司,116.497162,39.784954
北京艾信运通技术有限公司,116.372534,39.962206
悠易互通(北京)广告有限公司,116.459475,39.918788
微诺时代(北京)科技股份有限公司,116.346044,39.94887
博懋信(北京)科技有限公司,116.382192,39.973873
中京天裕科技(北京)有限公司,116.314255,40.029476
国科赛思(北京)科技有限公司,116.315314,40.042865
北京科莱普云技术有限公司,116.352946,40.012235
触网(北京)股份有限公司,116.462487,39.928034
北京德鸿普惠科技有限公司,116.463545,39.921316
易安财产保险股份有限公司,116.352647,39.974965
北京国信宏数科技有限责任公司,116.352909,39.959571
萨斯肯通讯技术(上海)有限公司北京分公司,116.443108,39.92147
京蒙汇聚(北京)科技发展有限公司,116.491977,39.899519
深圳市嘉德永丰科技有限公司北京分公司,116.351631,39.977163
南京云帐房网络科技有限公司,116.433417,39.920224
云蜂科技有限公司,116.36607,39.982583
北京博智数源科技股份有限公司,116.345301,39.881984
北京星云医学检验实验室有限公司,116.565152,39.778877
北京物联银汇数据科技有限公司,116.307169,39.866342
北京奇点机智科技有限公司,116.314743,39.984371
北京鼎泰泽丰投资管理有限公司,116.286377,39.827244
北京天舟上元信息技术有限公司,116.205913,39.91946
北京地星伟业数码科技有限公司,114.32379,30.46908
北京美秒科技有限公司,116.310442,40.056564
北京海思瑞格科技有限公司,116.186815,39.936824
北京仁光科技有限公司,116.311027,40.038426
北京拍拍赚科技有限责任公司,116.463062,39.934231
北京东方溢彩文化传播有限公司,116.272054,39.934425
北京人人时代科技有限公司,116.294648,40.050973
中国科学院大气物理研究所,116.387138,39.977962
北京华沁智联科技有限公司,116.576823,39.910326
北京烽火万家科技有限公司,116.488953,39.998966
智线云科技(北京)有限公司,116.452072,39.916519
耐誉斯凯(北京)科技有限公司,116.432338,39.93484
果犇农业科技(北京)有限公司,116.358994,39.772751
北京中科百英科技有限公司,116.279932,40.047555
北京大讲台科技有限公司,116.306274,39.980611
北京顺源开华科技有限公司,117.137078,31.839191
北京路途科技有限公司,116.456375,39.920155
英特工程仿真技术(大连)有限公司,116.298451,40.044019
航天云健康科技(北京)有限公司,116.323365,39.946961
北京敏思科技有限公司,116.308418,40.039356
有车（北京）新能源汽车租赁有限公司,116.357652,40.041947
北京北控三兴信息技术有限公司,116.287561,39.942921
北京多语信息技术有限公司济南分公司,116.452746,39.913764
中金云金融(北京)大数据科技股份有限公司,116.476655,39.912667
北京悦图遥感科技发展有限公司,116.338784,40.009379
北京鲸鹳科技有限公司,116.418186,39.894154
北京我的天科技有限公司,116.475891,39.985446
北京一石科技有限责任公司,116.435314,39.907256
北京中科闻歌科技股份有限公司,116.334089,39.987197
北京信联科汇科技有限公司,116.367272,40.098724
北京华纬讯电信技术有限公司,116.304339,40.045775
亚马逊中国,116.489792,39.968109
北京鑫互联科技有限公司,116.604315,39.901059
北京仁达方略管理咨询股份有限公司,116.29898,39.936276
北京中科晶上科技有限公司,116.325034,39.981766
北京布卡互动科技有限公司,116.307956,39.966622
深思考人工智能机器人科技(北京)有限公司,116.309306,40.04059
北京联游艺电科技有限公司,116.410405,39.919153
北京辰信领创信息技术有限公司,116.326704,39.983386
北京拓尔思信息技术股份有限公司,116.377757,39.993287
北京信远通科技有限公司,116.294768,39.822324
叮当快药科技集团有限公司,116.417669,39.920415
北京阅视无限科技有限公司,116.541327,39.930908
北京锦鸿希电信息技术股份有限公司,116.285415,39.832868
北京康佰瑞健康科技有限公司,116.299918,40.02471
国广东方网络(北京)有限公司,116.224795,39.906714
山东联科云计算股份有限公司,116.59886,39.924448
北京人人信科技有限公司,116.308901,39.980692
北京经纬纺机新技术有限公司,116.346734,40.030384
航天中认软件测评科技(北京)有限责任公司,116.321907,39.933099
北京华创互联科技股份有限公司,116.298938,39.828923
联通大数据有限公司,116.428455,39.907233
德稻全球创新网络(北京)有限公司,116.268943,39.957671
新译信息科技(北京)有限公司,116.487793,39.999793
北京车网互联科技有限公司,116.505929,39.986414
银杏树信息技术服务(北京)有限公司,116.268767,39.957506
广州哈奇智能科技有限公司北京分公司,116.460615,39.89677
北京翼辉信息技术有限公司,116.15701,40.065168
天江智媒科技(北京)有限公司,116.378329,39.954242
优识云创(北京)科技有限公司,116.306485,39.979566
北京新澜互动广告有限公司,116.47708,39.926498
北京智象信息技术有限公司,116.491319,39.903301
正元地理信息有限责任公司,116.639276,40.053163
西安睿群信息技术有限公司,116.42792,39.902896
北京唯迈医疗设备有限公司,116.5168,39.785534
北京瑞合实创科技发展有限公司,116.288865,40.148278
北京友仁邦信息科技有限公司,116.454364,39.79331
北京易盒科技有限公司,116.458855,39.909863
北京金锐德路科技有限公司,116.406456,39.939404
北京远鉴科技股份有限公司,116.27638,39.933251
北京金信润天通讯技术有限公司,114.884091,40.811901
万宝盛华企业管理咨询（上海）有限公司,116.319802,39.98294
北京米树科技有限公司,116.465492,40.022522
北京分享时代科技有限公司,116.510752,39.894157
昶鑫国际投资控股(北京)有限公司,116.388865,39.971066
中国供销农产品批发市场控股有限公司,116.373714,39.898645
北京万爱酒店管理有限公司,116.414532,39.989814
中付支付科技有限公司,116.511652,39.9118
天津中科虹星科技有限公司,116.366914,39.980061
北京云杉世纪网络科技有限公司,116.339299,39.992408
北京棱镜影像文化传媒有限公司,116.539139,39.911502
北京蜂睿信息科技有限公司,116.450867,39.932895
北京盛德信联科技有限公司,116.317053,40.06667
北京首钢自动化信息技术有限公司,116.158164,39.930083
北京盛威时代科技有限公司,116.303259,40.054377
深圳市新银河技术有限公司北京分公司,116.480011,39.997412
北京泰和志新软件有限公司,116.296687,40.02742
东方新诚信数字认证中心有限公司,112.893405,28.213291
首页大数据科技股份有限公司,116.308045,39.866216
北京国泰北斗科技有限公司,116.466441,39.959155
中国机动车辆安全鉴定检测中心,116.521365,39.782136
北京我爱出行科技服务有限公司,116.468774,40.012499
成都侠客岛企业管理有限公司,104.055384,30.538718
乘方大数据技术(北京)有限责任公司,116.310076,39.96014
北京跃科人才服务有限公司,116.482091,39.909351
北京欧应科技有限公司,116.452219,39.912946
深圳市盘古天地投资管理集团,116.313604,39.980093
北京安百胜生物科技有限公司,116.509061,39.799928
北京众城巨元科技发展有限公司,116.474786,39.907258
北京贝德思达科技发展有限公司,116.41142,39.971707
北京小泽文化艺术有限公司,116.465447,39.978328
北京新明星电子技术开发有限公司,116.278616,39.870626
资舟控股有限公司,116.413109,39.909172
北京初志科技有限公司,116.359972,40.039972
时代嘉华(中国)科技有限公司,116.462651,39.95012
成都动鱼数码科技有限公司,116.460934,39.915013
北京傲游天下科技有限公司,116.422303,39.951493
浙江乾冠信息安全研究院有限公司,116.457008,39.9003
北京科诺伟业科技有限公司,116.338762,39.999491
北京比邻弘科科技有限公司,116.516858,39.92375
北京云漫数据技术有限公司,116.334076,39.988097
北京畅行信息技术有限公司,116.467891,40.019237
北京依诺维尔科技有限公司,116.388865,39.971066
北京网络职业学院,116.071167,39.678189
人民澳客传媒科技有限公司,116.331212,39.980846
北京企办信息技术有限公司,116.476232,39.900711
冷杉精密仪器有限公司,116.453895,40.020922
北京北科博研科技有限公司,116.358276,39.888917
北京华诺时代科技有限公司,116.238281,40.204357
北京逐风科技有限公司,116.464968,39.900492
昆仑智汇数据科技(北京)有限公司,116.334745,39.993843
智锐达仪器科技南通有限公司,116.451875,39.913676
北京易思医疗器械有限责任公司,116.377189,39.893023
天津运友物流科技股份有限公司,117.177539,39.121594
北京都秀网络科技有限公司,116.515842,39.937042
北京天酬视觉企业形象设计有限公司,116.311707,40.033079
内蒙古云科数据服务有限公司,111.713516,40.82058
北京安博士信息安全技术有限公司,116.48105,39.996794
北京招通致晟软件技术有限公司,116.433864,39.919964
北京爱普优邦科技有限公司,116.420843,39.948653
北京华清飞扬网络股份有限公司,116.430346,39.909512
元计算(北京)科技服务有限公司,116.272165,40.021523
北京领骏科技有限公司,116.334964,39.994773
北京你我他互学数据科技股份有限公司,116.465973,40.020844
云天弈(北京)信息技术有限公司,116.353129,39.941783
北京星际联盟科技有限公司,116.334024,39.984599
北京联合永道软件股份有限公司,116.295594,39.824289
联创云科网络科技(北京)股份有限公司,116.490528,39.974985
北京微科能创科技有限公司,116.320193,40.033007
北京首易汽车租赁有限公司,116.518436,39.926768
北京快跑信息科技有限公司,116.33996,39.976476
北京京华未来机器人科技有限公司,116.449954,39.922753
北京神州泰岳教育科技有限公司,116.417227,40.032034
好药师大药房连锁有限公司,116.360878,39.756668
中国科学院新疆理化技术研究所,87.571977,43.867547
上海汇鎏投资有限公司,121.515605,31.251039
北京承启通科技有限公司,116.19182,39.93729
华航文化传播(北京)有限责任公司,116.457855,39.964563
北京新模式科技有限公司,116.383117,39.970732
北京超试科技有限公司,116.302305,39.945651
北京酷云互动科技有限公司,116.421466,39.948383
北京云知科技有限公司,116.500304,39.98446
北京环宇星漫文化传播有限公司,116.418842,39.951073
北京天舟通信有限公司,116.335243,39.953377
佰邦达科技（北京）有限公司,116.492388,39.935086
上海欣方智能系统有限公司,116.308201,40.045503
北京赛宁网安科技有限公司,116.351684,40.000189
北京尚诚怡美生物科技股份有限公司,116.249703,40.066796
泰德网聚(北京)科技股份有限公司,116.510906,39.904331
北京金州世纪信息技术有限公司,116.310195,40.039018
中烟追溯(北京)科技有限公司,116.277695,39.946602
北京简网世纪科技有限公司,116.480482,39.996201
泓钰汇财信息服务(北京)有限公司,116.446883,39.892995
北京企服嘉通技术服务有限公司,116.304793,39.826505
信用宝金融信息服务(北京)有限公司,116.437035,39.936596
北京京诚叁佰壹拾伍度网络科技有限公司,116.723703,39.854129
中冀投资股份有限公司,116.30611,39.866329
北京兆旭科技发展有限公司,116.360229,40.073696
北京芯盾时代科技有限公司,116.301449,39.960202
北京赞那度网络科技有限公司,116.451112,39.91518
智融信远(北京)科技有限公司,116.317571,39.983629
北京易捷思达科技发展有限公司,116.283964,40.050607
北京光合起源网络科技有限公司,116.36506,39.972542
北京青麦科技有限公司,116.497926,39.973072
网家科技有限责任公司,116.451614,39.919659
北京明泽陆通人力资源有限公司,116.32631,39.97087
北京福润一生科技有限公司,116.235736,40.076529
北京通联慧畅金融服务外包有限公司,116.460064,39.869388
北京中软华泰信息技术有限责任公司,116.325118,39.948575
南京金融资产交易中心有限公司,116.454569,39.915653
北京华翔联信科技有限公司,116.416357,39.928353
北京数据在线国际供应链管理股份有限公司,116.457037,39.913109
万摩数字科技(北京)有限公司,116.516163,39.904429
曼迪匹艾(北京)科技服务有限公司,116.658081,39.888386
北京晟景秀程教育科技有限责任公司,116.152534,40.116776
北京中软环球信息技术有限公司,116.42792,39.902896
北京航天自动控制研究所,116.265248,39.915159
北京贸促通国际资讯有限公司,116.299853,39.829371
北京吉星众创网络科技有限公司,116.513756,39.791853
北京荣马资产管理有限公司,116.473885,40.019988
北京开欣乐学信息科技有限公司,116.337364,40.079475
哈尔滨工大特种机器人有限公司北京分公司,116.514917,39.761772
北京浩太同益科技发展有限公司,116.417734,39.995456
华普天健会计师事务所(特殊普通合伙),116.347422,39.92292
北京中新唐印科技发展有限公司,116.359883,39.923992
国家网络安全应急工程技术研究中心,116.387216,39.974421
北京都百现代时尚生物科技有限责任公司,116.341224,39.964635
北京金堤科技有限公司,116.329075,39.977092
北京中健祥电子科技有限公司,116.464084,39.950818
海外网传媒有限公司,116.470206,39.918659
北京汇真网络传媒科技有限公司,116.332409,39.976003
北京奇果网络科技有限公司,116.319802,39.98294
北京蛙鸣华清环保科技有限公司,116.461255,39.954293
北京金山安全管理系统技术有限公司,116.414208,39.968708
北京盛科维科技发展有限公司,116.327921,40.052585
北京海鲸科技有限公司,116.460304,39.958019
微尔科技(北京)有限公司,116.490629,39.985199
金融工场,116.438614,39.924024
工业和信息化部软件与集成电路促进中心,116.295432,39.903722
泰豪软件股份有限公司,116.517134,39.787046
河北铸梦文化传播有限公司,114.596647,38.033609
北京福安华生物科技有限公司,116.282496,39.824597
成都智库二八六一信息技术有限公司,104.056191,30.538485
北京元心科技有限公司,116.4216,39.950996
南京阿森泰科生物技术有限公司,118.694876,32.161046
北京优势财富科技有限公司,116.312168,39.98155
北京汽车集团有限公司新技术研究院,116.632846,40.098315
江苏百世诺医疗科技有限公司,119.905924,32.394392
北京老虎智汇科技有限公司,116.466117,39.923652
翊翎(北京)资本管理有限公司,116.445167,39.94763
清华大学五道口金融学院,116.335591,39.993595
北京分音塔科技有限公司,116.334974,39.994524
国安新桥(北京)影视传媒投资有限公司,116.906288,39.712032
北京书生云科技有限公司,116.466141,40.017978
北京融慧创新信息技术有限公司,116.298056,39.959912
甲骨文（中国）软件系统有限公司,116.289887,40.04771
北京艺典网络科技有限公司,116.49366,39.975534
北京智诚智达交通科技有限公司,116.308278,39.87949
苏州九号电子科技有限公司,116.493817,39.973304
北京鑫汇迈科生物科技有限公司,116.232032,40.204127
北京医拍智能科技有限公司,116.415553,40.005665
云智惠(北京)投资管理有限公司,116.468883,39.913854
北京掘金建才信息技术有限公司,116.462482,39.900363
上海圣一信息技术有限公司,116.357611,39.931879
北京高视医疗信息技术有限公司,116.378536,39.970753
北京纳诺基生物医药科技有限公司,116.226903,39.878325
西人马量子盾(北京)科技有限公司,116.334495,39.994877
北京泛生子基因科技有限公司,116.26881,40.098974
坎德拉(深圳)科技创新有限公司,116.298056,39.959912
深圳地空互联技术有限公司,116.398015,39.895248
北京非凡影界文化传媒股份有限公司,116.519285,39.968722
北京广通信达软件股份有限公司杭州分公司,116.425617,39.915952
北京名堂盛世国际文化传媒有限公司,116.468751,39.900033
MoreVFX（墨影像制作）,116.519285,39.968722
北京佳明航电科技有限公司,116.490344,39.974291
北京转转精神科技有限责任公司,116.356123,40.045796
北京中科信软科技有限公司,116.332747,39.983018
北京译泰教育科技有限公司,116.474418,40.013933
北京健数通科技有限公司,116.30719,40.036184
北京星河金服科技有限公司,116.310195,40.039018
北京其欣然数码科技有限公司,116.555221,39.886015
我搜网络,116.35481,40.043497
重庆市瑞德铭科技发展有限公司深圳分公司,113.955737,22.539497
物融通集成服务平台有限公司,120.210788,30.240967
青岛克路德智能工程有限公司,116.301449,39.960202
科技谷(厦门)信息技术有限公司,118.162215,24.526339
北京辰通信息技术有限公司,116.302587,39.960428
北京腾云天下科技有限公司,116.435338,39.942034
北京尚爱文化传媒有限公司,117.042626,36.647479
龙芯中科技术有限公司,116.179669,40.061436
北京智佳互动科技有限公司,116.343093,39.974529
诺华视创电影科技(江苏)股份有限公司北京分公司,116.25605,39.979229
北京致成生物医学科技有限公司,116.56119,39.908066
三角兽(北京)科技有限公司,116.425343,39.988148
北京盛世源康科技发展有限公司,116.286377,39.827244
北京多赢时代科技有限公司洛阳分公司,116.492177,39.976256
上海韬途信息科技有限公司,116.298056,39.959912
北京宝信志成科技有限公司,116.388865,39.971066
象泰资本管理有限公司,116.310541,39.977082
北京金色丛林科技有限公司,116.339184,39.974951
北京拓课网络科技有限公司,116.413861,40.031969
北京华开领航科技有限责任公司,116.232524,40.203898
北京中指实证数据信息技术有限公司,116.294739,39.821264
北京世纪森源企业管理有限公司,116.48057,39.910341
北京东方视角文化传媒股份有限公司,116.509102,39.902725
北京中科威荣计算机技术有限公司,116.355054,39.950778
掌阅科技股份有限公司,116.514226,39.905452
北京金电恒通科技有限公司,116.345909,39.798239
北京侃家科技有限公司,116.433272,39.921613
北京小米科技有限责任公司,116.337324,40.026647
江苏康为世纪生物科技有限公司,116.280484,40.097162
北京大者机器人技术有限公司,116.285226,39.834447
北京十一贝科技有限公司,116.373389,40.03635
防特网信息科技（北京）有限公司,116.31315,39.984622
北京科安德网络技术有限公司,116.476362,39.953198
北京集创北方科技股份有限公司,116.522137,39.781249
北京元坤天成电子科技有限公司,116.612611,40.12008
泸州倍赛达科技有限公司,105.527685,28.860724
北京中软联动科技有限公司,116.433666,39.923823
北京中燕信息技术有限公司,115.946262,39.726921
中国科学院高能物理研究所,116.252255,39.911592
厦门爱思康新材料有限公司,118.192047,24.475025
华强方特(厦门)电影有限公司,118.174136,24.678993
香港唯优国际有限公司,114.065177,22.53149
北京天工异彩影视科技有限公司,116.494528,39.990025
凌动未来(北京)科技有限公司,116.41991,39.951283
北京阳光易德心理学应用技术有限公司,116.295778,39.820617
北京莱博智环球科技有限公司,116.467387,39.995589
北京妙医佳信息技术有限公司,116.48703,39.88766
北京联益合创科技股份有限公司,116.333817,39.983968
金令牌职业经理人俱乐部,116.470832,39.914413
佳能信息技术(北京)有限公司,116.333948,39.986972
中影环球(北京)科技有限公司,116.37447,39.956033
河南因特嘉实业有限公司,113.770924,34.757449
北京磨铁图书有限公司,116.378329,39.954242
东芝(中国)有限公司,116.464084,39.950818
山东闻远通信技术有限公司,117.143721,36.663018
北京正兴天宝自动化科技有限公司,116.56131,39.725964
家乐园商贸股份有限公司,114.499664,37.038802
北京北斗众航科技有限公司,116.298889,39.991177
北京品科技术有限公司,116.332472,39.980755
星河视效文化传播(北京)有限公司,116.521634,39.905757
北京创游卓越科技有限公司,116.298056,39.959912
北京凡学教育技术有限公司,116.319367,39.976511
北京微星优财网络科技有限公司,116.489119,39.999429
北京君来投信息科技有限公司,116.350415,39.938418
考拉征信服务有限公司,116.313448,39.978252
上海象形通讯科技股份有限公司北京分公司,116.522431,39.779162
北京盛世全景科技股份有限公司,116.333796,39.98807
北京康邦科技有限公司,116.289076,40.04583
北京波罗教育科技有限公司,116.333883,39.987718
中国招标公共服务平台有限公司,116.324819,39.933785
现在(北京)支付股份有限公司,116.340737,39.938918
云丁网络技术(北京)有限公司,116.347059,40.080197
上海奕见企业管理咨询有限公司,116.292868,40.047683
上海数慧系统技术有限公司,116.42792,39.902896
湖南大唐先一科技有限公司,116.288349,39.946443
龙信数据(北京)有限公司,116.288725,39.960952
昆仑杰信(北京)科技有限责任公司,116.480667,39.996403
银弗(北京)科技有限公司,116.738,39.844373
北京易数科技有限公司,116.478726,39.988081
北京立思辰科技股份有限公司,116.353194,40.016308
哈尔滨新中新电子股份有限公司北京分公司,116.295778,39.820617
北京智尚美品牌科技有限公司,116.417032,40.033341
北京金凯瑞铭科技有限公司,116.419268,39.998095
北京刷脸科技有限公司,116.484966,39.92401
北京鼎磐科技有限公司,116.411521,39.923472
北京怡美通德科技发展有限公司,116.529042,40.023873
北京吧咔科技有限公司,116.310098,39.983606
上海海魄信息科技股份有限公司,116.175639,40.060318
西安四维图新信息技术有限公司,108.874756,34.193222
北京车与车科技有限公司,116.408678,39.929992
北京忆恒创源科技有限公司,116.356123,40.045796
北京丹枫科技有限公司,116.470989,39.907587
贵州华芯通半导体技术有限公司,116.489334,40.006596
漫德威医疗科技(北京)有限公司,116.319802,39.98294
北京色彩空间文化传媒有限公司,116.593359,39.915035
北京春雨天下软件有限公司,116.351834,40.008993
北京锐客映画文化传媒有限公司,116.614996,39.929535
君融贷(北京)信息技术服务有限公司,116.492856,39.97434
北京触控科技有限公司,116.472574,40.002576
北京星闪世图科技有限公司,116.309306,40.04059
北京基因树科技有限公司,116.600005,39.927407
北京信锚网络有限公司,116.307289,40.090767
北京聚汇才商务咨询有限公司,116.508442,39.803882
博云视觉（北京）科技有限公司,116.284706,40.049953
北京知多星科技有限公司,116.287865,40.046673
北京红橘科技有限公司,116.238672,40.06885
北京兆源数通科技有限公司,116.373787,39.953747
北京琳云信息科技有限责任公司,116.433196,39.920688
杭州科之锐人力资源有限公司,116.345822,39.977481
淘金科技投资（北京）股份有限公司,116.482973,39.997432
北京君测信安科技有限公司,116.300591,40.024343
瑞资(北京)科技有限公司,116.49864,39.979954
北京爱问科技有限公司,116.455294,39.937492
北京鸿云亚信科技有限公司,116.345624,40.079921
必连(北京)科技有限公司,116.493221,39.973419
兆原数通(北京)数据科技有限公司,116.373493,39.953262
厦门市湖里区墨辰天勤网络技术服务部,116.298056,39.959912
北京志联利盟科技发展有限公司,116.308644,40.040903
北京得意音通技术有限责任公司,116.340606,40.006908
北京深蓝海域信息科技有限公司,116.289604,40.098583
互腾(北京)科技有限公司,116.291962,40.09948
掌游天下(北京)信息技术股份有限公司,116.338423,39.974955
北京大学创新研究院,116.178856,40.074677
北京奥泰瑞格科技有限公司,116.303769,40.046631
北京华瑞富达科技有限公司,116.418276,39.894538
赤峰供销一创网络科技有限公司,116.126158,39.714869
北京万维星辰科技有限公司,116.295778,39.820617
北京算云联科科技有限公司,116.308201,40.045503
招商新智科技有限公司,116.295564,39.821203
游艺春秋网络科技（北京）有限公司,116.312951,40.038276
北京乐享出行科技有限公司,116.366028,39.988588
北京粒子互娱网络科技有限公司,116.600555,39.926985
北京金恒网广告艺术有限公司,116.52019,39.77703
亿睿科信息技术(北京)有限公司,116.460552,39.916081
中国船级社实业公司,116.410108,39.918738
北京大然航空服务有限公司,116.497188,39.974443
中华网,116.436644,39.967543
北京凯峰数据科技有限公司,116.442171,39.92312
北京东方网信科技股份有限公司,116.322239,39.992047
北京派合文化传播股份有限公司,116.517494,39.916988
北京大唐鸿润商贸有限公司,116.451614,39.919659
北京如易行科技有限公司,116.365272,39.974314
南京网感至察信息科技有限公司,118.87485,32.018433
阳光兔(北京)科技有限公司,116.475891,39.985446
恒耀惠荣股份有限公司,116.406632,39.981607
北京宏运通供应链管理有限公司,116.487807,39.916289
工信通(北京)信息技术有限公司,116.295564,39.906747
北京华博科讯信息技术有限公司,116.365846,39.98588
北京费恩莱斯体育文化有限公司,116.290178,40.143752
第一视频集团,116.486269,40.008712
阳光财产保险股份有限公司3,116.438469,39.922794
北京炫世纪文化发展有限公司,116.438759,39.92488
北京元和医学检验所有限公司,116.567423,39.789766
北京圣邦天麒科技有限公司,116.301374,40.053074
北京北大方正电子有限公司,116.306923,40.040854
北京卓成世纪科技发展有限公司,116.355966,39.953351
北京恒达时讯科技股份有限公司,116.255848,39.9771
一路米(北京)科技有限公司,116.359972,40.039972
上海诺亦腾影视科技有限公司,116.37378,39.953971
北京龙软科技股份有限公司,116.333817,39.983968
天津唐人影视有限公司北京文化传媒分公司,116.449954,39.922753
北京艾科网信科技有限公司,116.305675,40.046772
北京畅联九州科技有限公司,116.412471,40.003221
北京至上泽思信息技术有限公司,116.519851,39.892499
经纶世纪医疗网络技术(北京)有限公司,116.293673,39.874923
北京多彩投网络科技有限公司,116.472944,39.985268
北京谛听文化传媒有限公司,116.507306,39.957781
北京友通上昊科技有限公司,116.558583,39.775593
北京道贞健康科技发展有限责任公司,116.424989,39.979785
北京东方金信科技有限公司,116.438903,39.89506
奇点锐创(北京)科技有限公司,116.313892,40.03564
北京纵横兄弟信息技术有限公司,116.294779,39.823102
中电达通数据技术股份有限公司,116.460704,39.929612
山东丽波电子科技有限公司北京分公司,116.494327,39.976145
北京小龙虾科技有限公司,116.452207,39.912954
贵州莜桔西科技有限公司,116.443108,39.92147
伙伴聚力(北京)科技有限公司,116.309031,40.036569
北京八二七科技有限公司,116.319802,39.98294
北京易捷联创科技有限公司,116.359972,40.039972
北京法语联盟,116.444711,39.927778
世纪保众(北京)网络科技有限公司,116.42144,39.887398
深圳英飞咨询有限公司,116.319802,39.98294
北京易腾川网络营销技术有限公司,116.432253,40.072849
北京坚小持科技文化有限公司,116.3566,40.0461
北京道方科技有限公司,116.613625,40.065248
中国科学院自动化研究所,116.333014,39.979259
远朋智教(北京)科技有限公司,116.494721,39.973688
新保云集(北京)网络科技有限公司,116.556351,40.096816
北京菲尔麦德咨询有限公司,116.333649,39.993897
北京史河科技有限公司,116.298094,39.908361
北京南木一风信息技术有限公司,116.466994,40.020588
北京佳禾未来科技有限公司,116.45934,39.949844
北京易沃特科技有限公司,116.463488,39.95095
北京融诚赛博管理咨询中心,116.466485,39.995197
天地融科技股份有限公司,116.35725,39.945702
北京规格投资管理有限公司,116.461676,39.908268
深圳奇点信息技术有限公司,116.42083,39.948666
北京蓦然认知科技有限公司,116.351834,40.008993
北京致富投资管理合伙企业(有限合伙),116.459536,39.909487
北京清天白云环境科技有限公司,116.388865,39.971066
芯视界(北京)科技有限公司,116.334745,39.993843
北京小灵花信息技术有限公司,116.308838,39.981767
识创恒晟科技(北京)有限公司,116.439635,40.042433
北京火种创投信息咨询有限公司,116.317564,39.975996
北京和川创新科技有限公司,116.460056,39.9253
极影梦想影视文化发展(北京)有限公司,116.516617,39.949108
中青联盟大数据研究(北京)有限公司,116.460704,39.929612
北京游族彼岸科技有限公司,116.331212,39.980846
北京质心教育科技有限公司,116.320146,39.975723
国交空间信息技术(北京)有限公司,116.401489,39.96611
北京德稻教育投资有限公司,116.268742,39.957771
北京万物梵生文化传媒有限公司,116.428696,39.894322
北京融邦汇聚科技有限公司,116.426319,39.941823
中科数创(北京)数字传媒有限公司,116.42792,39.902896
联合永道(上海)信息技术有限公司,116.342985,39.974519
北京迪威特科技有限公司,116.367151,39.918419
赛亚人(天津)网络技术有限公司北京科技分公司,116.429362,40.005523
北京全网数商科技股份有限公司,116.336863,39.961769
畅享无限科技(北京)有限公司,116.412804,39.970597
阿大科技(北京)有限公司,116.502319,39.780929
北京投友圈信息科技有限公司,116.418561,39.997054
中船重工海空智能装备有限公司,116.57776,39.786361
霍尔果斯惠乾信息科技有限公司,116.48105,39.996794
北京帮一把网络科技有限公司,116.505818,39.956252
北京四通智能建筑系统集成工程股份有限公司,116.245166,39.903149
北京亿联通付科技有限公司,116.638973,39.905458
北京全电智领科技有限公司,116.315249,39.982749
杭州伏羲教育咨询有限公司,115.920436,39.656031
北京富地源科技有限责任公司,116.314931,39.883892
青岛酒知道智能科技有限公司,116.490528,39.974985
深圳市易成自动驾驶技术有限公司北京分公司,116.412888,40.028668
竹间智能科技(上海)有限公司,116.338762,39.999491
北京中润国盛科技有限公司,116.355962,39.890497
北京知金链网络技术有限公司,116.184357,39.905689
北京经纬恒润科技有限公司海淀分公司,116.35125,39.977761
长扬科技(北京)有限公司,116.308162,39.978697
北京顺宝技术服务有限公司,116.491506,39.913254
北京火眼时代科技有限公司,116.481513,39.996626
北京维科信恒文化传播有限公司,116.319802,39.98294
北京德慧人力资源有限公司,116.414767,40.062124
北京世纪新干线网络技术有限公司,116.492157,39.996578
量函(上海)投资管理有限公司,116.4511,39.962026
上海奈金商务咨询有限公司,116.42792,39.902896
达闼科技(北京)有限公司,116.48105,39.996794
北京中网银科科技有限公司,116.487807,39.916289
北京海洋环球物流咨询有限公司,116.333796,39.98807
北京微势力科技有限公司,116.475964,39.983483
北京勤心科技有限公司,116.286724,39.861817
北京瑞友科技股份有限公司,116.603096,39.924458
工银瑞信投资管理有限公司,116.365868,39.912289
北京圈网互联科技有限公司,116.420395,39.894212
慈讯文化有限公司,116.512709,39.911509
天津星影聚合互联网科技有限公司北京办事处,116.514879,39.894068
北京财到信息技术有限公司,116.307149,40.036538
北京博威奇科技有限公司,116.463036,39.885745
蜂狂购(北京)电子商务有限公司,116.351706,39.761328
用友能源科技有限公司,116.238672,40.06885
昆山云飞企业管理有限公司,120.88792,31.403427
时光谱信息技术(上海)有限公司北京分公司,116.41558,39.892422
中智诚征信有限公司,116.379316,39.925076
北京多来点信息技术有限公司,116.353129,39.941783
北京骑思妙享科技有限公司,116.299007,40.044579
北京正安维视科技股份有限公司,116.372266,39.953907
北京同余科技有限公司,116.41842,39.98792
北京灵游坊软件技术有限公司,116.296601,39.967653
天津市康凯特软件科技有限公司,116.354206,39.892943
北京众智京鹭信息技术有限公司,116.430166,39.975408
北京艾尔鸿图信息技术有限公司,116.42792,39.902896
廊坊开发区中油新星电信工程有限公司,116.231204,40.22066
点豆互联(北京)科技有限公司,116.32711,39.960153
创新科存储技术有限公司,116.368374,39.980158
奥芬云健康科技(北京)有限公司,116.355718,39.890785
北京东科盛景科技有限公司,116.306295,40.053034
迪尔码国际营销服务(北京)有限公司,116.441384,39.937014
北京汇游智诚科技有限公司,116.415577,39.938624
指点无限(北京)科技有限公司,116.499554,39.905309
中科视拓(北京)科技有限公司,116.333948,39.986972
北京享控智能科技有限公司,116.454833,39.920022
锐思锐拓(北京)管理咨询有限公司,116.413996,39.909097
北京维恩咨询有限公司,116.430942,39.859089
深圳市骏昇科技有限公司,116.416357,39.928353
地利农产品投资控股有限公司,116.368232,39.855124
北京美易科技有限公司,116.48105,39.996794
北京帷幕天城影视科技有限公司,116.581176,39.921601
北京天创四方教育科技有限责任公司,116.303276,40.035542
天津纵游科技有限公司,116.439763,40.041777
北京德和天成科技发展有限公司,116.143267,39.749144
北京网融通医疗科技发展有限公司,116.343178,39.882633
北京深蓝宏达智能科技有限公司,116.349138,40.006989
海南中爱互娱网络技术有限公司,116.336116,40.0708
北京余弦人工智能科技有限公司,116.495682,39.909855
互金时贷(北京)信息服务有限公司,116.482544,39.989635
北京棣南新宇科技有限公司,116.321824,39.975628
华瑞天地(北京)文化发展有限公司,116.45057,39.963136
北京富邦智慧物联科技有限公司,116.281049,40.042501
国美电器有限公司,116.466716,39.958957
北京金谷财行投资管理有限公司,116.470009,39.912719
北京海文盈通信息技术有限公司,116.3231,39.966197
乾道投资控股集团有限公司,116.441683,39.919656
敦煌网,116.339299,39.992408
北京思享时光科技有限公司,116.41135,39.969418
资信财富投资(集团)有限公司,116.296601,39.967653
中关村协同发展投资有限公司,116.370293,39.982529
八爪鱼互动(北京)科技有限公司,116.473625,40.012238
北京云途腾科技有限责任公司,116.279068,39.930812
戴尔斯克集团,116.479706,39.909431
北京神黄科技股份有限公司,116.430952,39.932769
大唐联诚信息系统技术有限公司,116.354956,39.979839
西门子(中国)有限公司,116.472747,39.985296
汉力控股有限公司,116.28099,39.820192
北京众测众意网络技术有限公司,116.495654,39.894646
﻿北京互联直通网络科技有限公司,116.433137,39.955006
极课大数据,116.460116,39.957178
随锐科技股份有限公司,116.376152,40.032294
北京微播易科技股份有限公司,116.404764,39.999211
北京众和永业科技发展有限公司,116.306669,39.980301
北京爱悦达管理顾问有限公司,116.47495,39.912982
龙存(苏州)科技有限公司,120.776272,31.309282
北京吾里文化有限公司,116.614112,39.926663
人人行科技股份有限公司,116.413222,40.016541
云上贵州大数据产业发展有限公司,116.484591,39.91783
方正中期期货有限公司,116.46325,39.920564
北京云智汇科技有限公司,116.304141,40.041912
北京首信科技股份有限公司,116.293577,39.874793
文思海辉技术有限公司 Pactera Technology International Limited,116.302458,40.054093
速得尔科技(北京)有限公司,116.326145,40.061709
北京恒信通诚科技有限公司,116.308591,40.037522
北京真格天成投资管理有限公司,116.4584,39.909564
北京国舜科技有限公司,116.354135,40.001739
中建智云网络通信有限公司,116.412267,39.946996
北京亚康环宇科技有限公司,116.3079,39.978657
普华众鑫文化传播有限公司,116.493191,39.899588
北京中科磐云科技有限公司,116.339643,39.974653
北京鑫彤日科技有限责任公司,116.310544,39.976806
万象道兴(北京)游戏科技有限公司,116.606295,39.908358
大唐网络有限公司,116.37111,39.968649
奥美德诺(北京)基因科技有限公司,116.370538,40.100671
北京值得买科技股份有限公司,116.386697,39.851076
北京优旅网络科技有限公司,116.333767,39.988083
北京睿智融科控股有限公司,116.480708,39.996162
天津环融集团有限公司,117.383733,39.160433
北京展云互联科技有限公司,116.424286,40.031455
北京数联领航网络科技有限公司,116.414575,40.040318
北京旋极伏羲大数据技术有限公司,116.310817,39.959372
北京创景咨询有限公司,116.33409,39.987041
国诚信征信有限公司,116.342746,39.905391
深圳市前海谷雨网络科技有限公司,113.86766,22.566939
